{
  "mtrbus_K12_O": [
    {
      "company": "mtrbus",
      "id": "mtrbus_K12_O",
      "stop_id": "mtrbus_K12_O_K12-U010",
      "route": "K12",
      "dir": "O",
      "from_tc": "大埔墟站",
      "from_en": "Tai Po Market Station",
      "to_tc": "八號花園",
      "to_en": "Eightland Garden",
      "name_tc": "大埔墟站",
      "name_en": "Tai Po Market Station",
      "seq": "1",
      "stop": "K12-U010",
      "lat": "22.444414",
      "long": "114.169471"
    },
    {
      "company": "mtrbus",
      "id": "mtrbus_K12_O",
      "stop_id": "mtrbus_K12_O_K12-U020",
      "route": "K12",
      "dir": "O",
      "from_tc": "大埔墟站",
      "from_en": "Tai Po Market Station",
      "to_tc": "八號花園",
      "to_en": "Eightland Garden",
      "name_tc": "大埔超級城",
      "name_en": "Tai Po Mega Mall",
      "seq": "2",
      "stop": "K12-U020",
      "lat": "22.450971",
      "long": "114.169957"
    },
    {
      "company": "mtrbus",
      "id": "mtrbus_K12_O",
      "stop_id": "mtrbus_K12_O_K12-U030",
      "route": "K12",
      "dir": "O",
      "from_tc": "大埔墟站",
      "from_en": "Tai Po Market Station",
      "to_tc": "八號花園",
      "to_en": "Eightland Garden",
      "name_tc": "八號花園",
      "name_en": "Eightland Garden",
      "seq": "3",
      "stop": "K12-U030",
      "lat": "22.452836",
      "long": "114.166496"
    }
  ],
  "mtrbus_K12_I": [
    {
      "company": "mtrbus",
      "id": "mtrbus_K12_I",
      "stop_id": "mtrbus_K12_I_K12-D010",
      "route": "K12",
      "dir": "I",
      "from_tc": "八號花園",
      "from_en": "Eightland Garden",
      "to_tc": "大埔墟站",
      "to_en": "Tai Po Market Station",
      "name_tc": "八號花園",
      "name_en": "Eightland Garden",
      "seq": "1",
      "stop": "K12-D010",
      "lat": "22.452836",
      "long": "114.166496"
    },
    {
      "company": "mtrbus",
      "id": "mtrbus_K12_I",
      "stop_id": "mtrbus_K12_I_K12-D020",
      "route": "K12",
      "dir": "I",
      "from_tc": "八號花園",
      "from_en": "Eightland Garden",
      "to_tc": "大埔墟站",
      "to_en": "Tai Po Market Station",
      "name_tc": "大埔超級城",
      "name_en": "Tai Po Mega Mall",
      "seq": "2",
      "stop": "K12-D020",
      "lat": "22.451278",
      "long": "114.170087"
    },
    {
      "company": "mtrbus",
      "id": "mtrbus_K12_I",
      "stop_id": "mtrbus_K12_I_K12-D030",
      "route": "K12",
      "dir": "I",
      "from_tc": "八號花園",
      "from_en": "Eightland Garden",
      "to_tc": "大埔墟站",
      "to_en": "Tai Po Market Station",
      "name_tc": "新達廣場",
      "name_en": "Uptown Plaza",
      "seq": "3",
      "stop": "K12-D030",
      "lat": "22.443712",
      "long": "114.16991"
    },
    {
      "company": "mtrbus",
      "id": "mtrbus_K12_I",
      "stop_id": "mtrbus_K12_I_K12-D040",
      "route": "K12",
      "dir": "I",
      "from_tc": "八號花園",
      "from_en": "Eightland Garden",
      "to_tc": "大埔墟站",
      "to_en": "Tai Po Market Station",
      "name_tc": "大埔墟站",
      "name_en": "Tai Po Market Station",
      "seq": "4",
      "stop": "K12-D040",
      "lat": "22.444414",
      "long": "114.169471"
    }
  ],
  "mtrbus_K14_O": [
    {
      "company": "mtrbus",
      "id": "mtrbus_K14_O",
      "stop_id": "mtrbus_K14_O_K14-D010",
      "route": "K14",
      "dir": "O",
      "from_tc": "大埔超級城",
      "from_en": "Tai Po Mega Mall",
      "to_tc": "大埔墟站",
      "to_en": "Tai Po Market Station",
      "name_tc": "大埔超級城",
      "name_en": "Tai Po Mega Mall",
      "seq": "1",
      "stop": "K14-D010",
      "lat": "22.451278",
      "long": "114.170087"
    },
    {
      "company": "mtrbus",
      "id": "mtrbus_K14_O",
      "stop_id": "mtrbus_K14_O_K14-D020",
      "route": "K14",
      "dir": "O",
      "from_tc": "大埔超級城",
      "from_en": "Tai Po Mega Mall",
      "to_tc": "大埔墟站",
      "to_en": "Tai Po Market Station",
      "name_tc": "新達廣場",
      "name_en": "Uptown Plaza",
      "seq": "2",
      "stop": "K14-D020",
      "lat": "22.443712",
      "long": "114.16991"
    },
    {
      "company": "mtrbus",
      "id": "mtrbus_K14_O",
      "stop_id": "mtrbus_K14_O_K14-D030",
      "route": "K14",
      "dir": "O",
      "from_tc": "大埔超級城",
      "from_en": "Tai Po Mega Mall",
      "to_tc": "大埔墟站",
      "to_en": "Tai Po Market Station",
      "name_tc": "大埔墟站",
      "name_en": "Tai Po Market Station",
      "seq": "3",
      "stop": "K14-D030",
      "lat": "22.444414",
      "long": "114.169471"
    }
  ],
  "mtrbus_K17_O": [
    {
      "company": "mtrbus",
      "id": "mtrbus_K17_O",
      "stop_id": "mtrbus_K17_O_K17-U010",
      "route": "K17",
      "dir": "O",
      "from_tc": "大埔墟站",
      "from_en": "Tai Po Market Station",
      "to_tc": "富善",
      "to_en": "Fu Shin",
      "name_tc": "大埔墟站",
      "name_en": "Tai Po Market Station",
      "seq": "1",
      "stop": "K17-U010",
      "lat": "22.444414",
      "long": "114.169471"
    },
    {
      "company": "mtrbus",
      "id": "mtrbus_K17_O",
      "stop_id": "mtrbus_K17_O_K17-U020",
      "route": "K17",
      "dir": "O",
      "from_tc": "大埔墟站",
      "from_en": "Tai Po Market Station",
      "to_tc": "富善",
      "to_en": "Fu Shin",
      "name_tc": "大埔中心第五期",
      "name_en": "Tai Po Centre Phase 5",
      "seq": "2",
      "stop": "K17-U020",
      "lat": "22.453021",
      "long": "114.172331"
    },
    {
      "company": "mtrbus",
      "id": "mtrbus_K17_O",
      "stop_id": "mtrbus_K17_O_K17-U030",
      "route": "K17",
      "dir": "O",
      "from_tc": "大埔墟站",
      "from_en": "Tai Po Market Station",
      "to_tc": "富善",
      "to_en": "Fu Shin",
      "name_tc": "怡雅苑",
      "name_en": "Yee Nga Court",
      "seq": "3",
      "stop": "K17-U030",
      "lat": "22.454538",
      "long": "114.174428"
    },
    {
      "company": "mtrbus",
      "id": "mtrbus_K17_O",
      "stop_id": "mtrbus_K17_O_K17-U040",
      "route": "K17",
      "dir": "O",
      "from_tc": "大埔墟站",
      "from_en": "Tai Po Market Station",
      "to_tc": "富善",
      "to_en": "Fu Shin",
      "name_tc": "富善",
      "name_en": "Fu Shin",
      "seq": "4",
      "stop": "K17-U040",
      "lat": "22.454322",
      "long": "114.174098"
    }
  ],
  "mtrbus_K17_I": [
    {
      "company": "mtrbus",
      "id": "mtrbus_K17_I",
      "stop_id": "mtrbus_K17_I_K17-D010",
      "route": "K17",
      "dir": "I",
      "from_tc": "富善",
      "from_en": "Fu Shin",
      "to_tc": "大埔墟站",
      "to_en": "Tai Po Market Station",
      "name_tc": "富善",
      "name_en": "Fu Shin",
      "seq": "1",
      "stop": "K17-D010",
      "lat": "22.454322",
      "long": "114.174098"
    },
    {
      "company": "mtrbus",
      "id": "mtrbus_K17_I",
      "stop_id": "mtrbus_K17_I_K17-D020",
      "route": "K17",
      "dir": "I",
      "from_tc": "富善",
      "from_en": "Fu Shin",
      "to_tc": "大埔墟站",
      "to_en": "Tai Po Market Station",
      "name_tc": "新達廣場",
      "name_en": "Uptown Plaza",
      "seq": "2",
      "stop": "K17-D020",
      "lat": "22.443712",
      "long": "114.16991"
    },
    {
      "company": "mtrbus",
      "id": "mtrbus_K17_I",
      "stop_id": "mtrbus_K17_I_K17-D030",
      "route": "K17",
      "dir": "I",
      "from_tc": "富善",
      "from_en": "Fu Shin",
      "to_tc": "大埔墟站",
      "to_en": "Tai Po Market Station",
      "name_tc": "大埔墟站",
      "name_en": "Tai Po Market Station",
      "seq": "3",
      "stop": "K17-D030",
      "lat": "22.444414",
      "long": "114.169471"
    }
  ],
  "mtrbus_K18_O": [
    {
      "company": "mtrbus",
      "id": "mtrbus_K18_O",
      "stop_id": "mtrbus_K18_O_K18-U010",
      "route": "K18",
      "dir": "O",
      "from_tc": "大埔墟站",
      "from_en": "Tai Po Market Station",
      "to_tc": "廣福",
      "to_en": "Kwong Fuk",
      "name_tc": "大埔墟站",
      "name_en": "Tai Po Market Station",
      "seq": "1",
      "stop": "K18-U010",
      "lat": "22.444414",
      "long": "114.169471"
    },
    {
      "company": "mtrbus",
      "id": "mtrbus_K18_O",
      "stop_id": "mtrbus_K18_O_K18-U020",
      "route": "K18",
      "dir": "O",
      "from_tc": "大埔墟站",
      "from_en": "Tai Po Market Station",
      "to_tc": "廣福",
      "to_en": "Kwong Fuk",
      "name_tc": "宏福苑",
      "name_en": "Wang Fuk Court",
      "seq": "2",
      "stop": "K18-U020",
      "lat": "22.447531",
      "long": "114.17473"
    },
    {
      "company": "mtrbus",
      "id": "mtrbus_K18_O",
      "stop_id": "mtrbus_K18_O_K18-U030",
      "route": "K18",
      "dir": "O",
      "from_tc": "大埔墟站",
      "from_en": "Tai Po Market Station",
      "to_tc": "廣福",
      "to_en": "Kwong Fuk",
      "name_tc": "廣福",
      "name_en": "Kwong Fuk",
      "seq": "3",
      "stop": "K18-U030",
      "lat": "22.4487",
      "long": "114.174398"
    }
  ],
  "mtrbus_K18_I": [
    {
      "company": "mtrbus",
      "id": "mtrbus_K18_I",
      "stop_id": "mtrbus_K18_I_K18-D010",
      "route": "K18",
      "dir": "I",
      "from_tc": "廣福",
      "from_en": "Kwong Fuk",
      "to_tc": "大埔墟站",
      "to_en": "Tai Po Market Station",
      "name_tc": "廣福",
      "name_en": "Kwong Fuk",
      "seq": "1",
      "stop": "K18-D010",
      "lat": "22.4487",
      "long": "114.174398"
    },
    {
      "company": "mtrbus",
      "id": "mtrbus_K18_I",
      "stop_id": "mtrbus_K18_I_K18-D020",
      "route": "K18",
      "dir": "I",
      "from_tc": "廣福",
      "from_en": "Kwong Fuk",
      "to_tc": "大埔墟站",
      "to_en": "Tai Po Market Station",
      "name_tc": "新達廣場",
      "name_en": "Uptown Plaza",
      "seq": "2",
      "stop": "K18-D020",
      "lat": "22.443712",
      "long": "114.16991"
    },
    {
      "company": "mtrbus",
      "id": "mtrbus_K18_I",
      "stop_id": "mtrbus_K18_I_K18-D030",
      "route": "K18",
      "dir": "I",
      "from_tc": "廣福",
      "from_en": "Kwong Fuk",
      "to_tc": "大埔墟站",
      "to_en": "Tai Po Market Station",
      "name_tc": "大埔墟站",
      "name_en": "Tai Po Market Station",
      "seq": "3",
      "stop": "K18-D030",
      "lat": "22.444414",
      "long": "114.169471"
    }
  ],
  "mtrbus_506_O": [
    {
      "company": "mtrbus",
      "id": "mtrbus_506_O",
      "stop_id": "mtrbus_506_O_506-U010",
      "route": "506",
      "dir": "O",
      "from_tc": "屯門碼頭",
      "from_en": "Tuen Mun Ferry Pier",
      "to_tc": "兆麟",
      "to_en": "Siu Lun",
      "name_tc": "屯門碼頭",
      "name_en": "Tuen Mun Ferry Pier",
      "seq": "1",
      "stop": "506-U010",
      "lat": "22.372986",
      "long": "113.966502"
    },
    {
      "company": "mtrbus",
      "id": "mtrbus_506_O",
      "stop_id": "mtrbus_506_O_506-U020",
      "route": "506",
      "dir": "O",
      "from_tc": "屯門碼頭",
      "from_en": "Tuen Mun Ferry Pier",
      "to_tc": "兆麟",
      "to_en": "Siu Lun",
      "name_tc": "美樂花園",
      "name_en": "Melody Garden",
      "seq": "2",
      "stop": "506-U020",
      "lat": "22.375834",
      "long": "113.960628"
    },
    {
      "company": "mtrbus",
      "id": "mtrbus_506_O",
      "stop_id": "mtrbus_506_O_506-U030",
      "route": "506",
      "dir": "O",
      "from_tc": "屯門碼頭",
      "from_en": "Tuen Mun Ferry Pier",
      "to_tc": "兆麟",
      "to_en": "Siu Lun",
      "name_tc": "輕鐵蝴蝶站",
      "name_en": "LR Butterfly Stop",
      "seq": "3",
      "stop": "506-U030",
      "lat": "22.378364",
      "long": "113.961965"
    },
    {
      "company": "mtrbus",
      "id": "mtrbus_506_O",
      "stop_id": "mtrbus_506_O_506-U040",
      "route": "506",
      "dir": "O",
      "from_tc": "屯門碼頭",
      "from_en": "Tuen Mun Ferry Pier",
      "to_tc": "兆麟",
      "to_en": "Siu Lun",
      "name_tc": "輕鐵車廠站",
      "name_en": "Light Rail Depot Stop",
      "seq": "4",
      "stop": "506-U040",
      "lat": "22.382203",
      "long": "113.96359"
    },
    {
      "company": "mtrbus",
      "id": "mtrbus_506_O",
      "stop_id": "mtrbus_506_O_506-U050",
      "route": "506",
      "dir": "O",
      "from_tc": "屯門碼頭",
      "from_en": "Tuen Mun Ferry Pier",
      "to_tc": "兆麟",
      "to_en": "Siu Lun",
      "name_tc": "輕鐵龍門站",
      "name_en": "LR Lung Mun Stop",
      "seq": "5",
      "stop": "506-U050",
      "lat": "22.385399",
      "long": "113.965222"
    },
    {
      "company": "mtrbus",
      "id": "mtrbus_506_O",
      "stop_id": "mtrbus_506_O_506-U060",
      "route": "506",
      "dir": "O",
      "from_tc": "屯門碼頭",
      "from_en": "Tuen Mun Ferry Pier",
      "to_tc": "兆麟",
      "to_en": "Siu Lun",
      "name_tc": "輕鐵青雲站",
      "name_en": "LR Tsing Wun Stop",
      "seq": "6",
      "stop": "506-U060",
      "lat": "22.393627",
      "long": "113.96752"
    },
    {
      "company": "mtrbus",
      "id": "mtrbus_506_O",
      "stop_id": "mtrbus_506_O_506-U070",
      "route": "506",
      "dir": "O",
      "from_tc": "屯門碼頭",
      "from_en": "Tuen Mun Ferry Pier",
      "to_tc": "兆麟",
      "to_en": "Siu Lun",
      "name_tc": "輕鐵建安站",
      "name_en": "LR Kin On Stop",
      "seq": "7",
      "stop": "506-U070",
      "lat": "22.395064",
      "long": "113.969953"
    },
    {
      "company": "mtrbus",
      "id": "mtrbus_506_O",
      "stop_id": "mtrbus_506_O_506-U080",
      "route": "506",
      "dir": "O",
      "from_tc": "屯門碼頭",
      "from_en": "Tuen Mun Ferry Pier",
      "to_tc": "兆麟",
      "to_en": "Siu Lun",
      "name_tc": "港鐵屯門站",
      "name_en": "MTR Tuen Mun Station",
      "seq": "8",
      "stop": "506-U080",
      "lat": "22.394117",
      "long": "113.973992"
    },
    {
      "company": "mtrbus",
      "id": "mtrbus_506_O",
      "stop_id": "mtrbus_506_O_506-U090",
      "route": "506",
      "dir": "O",
      "from_tc": "屯門碼頭",
      "from_en": "Tuen Mun Ferry Pier",
      "to_tc": "兆麟",
      "to_en": "Siu Lun",
      "name_tc": "屯門市中心",
      "name_en": "Tuen Mun Town Centre",
      "seq": "9",
      "stop": "506-U090",
      "lat": "22.391352",
      "long": "113.975474"
    },
    {
      "company": "mtrbus",
      "id": "mtrbus_506_O",
      "stop_id": "mtrbus_506_O_506-U100",
      "route": "506",
      "dir": "O",
      "from_tc": "屯門碼頭",
      "from_en": "Tuen Mun Ferry Pier",
      "to_tc": "兆麟",
      "to_en": "Siu Lun",
      "name_tc": "安定邨",
      "name_en": "On Ting Estate",
      "seq": "10",
      "stop": "506-U100",
      "lat": "22.387312",
      "long": "113.975341"
    },
    {
      "company": "mtrbus",
      "id": "mtrbus_506_O",
      "stop_id": "mtrbus_506_O_506-U110",
      "route": "506",
      "dir": "O",
      "from_tc": "屯門碼頭",
      "from_en": "Tuen Mun Ferry Pier",
      "to_tc": "兆麟",
      "to_en": "Siu Lun",
      "name_tc": "輕鐵三聖站",
      "name_en": "LR Sam Shing Stop",
      "seq": "11",
      "stop": "506-U110",
      "lat": "22.382916",
      "long": "113.976276"
    },
    {
      "company": "mtrbus",
      "id": "mtrbus_506_O",
      "stop_id": "mtrbus_506_O_506-U120",
      "route": "506",
      "dir": "O",
      "from_tc": "屯門碼頭",
      "from_en": "Tuen Mun Ferry Pier",
      "to_tc": "兆麟",
      "to_en": "Siu Lun",
      "name_tc": "兆麟",
      "name_en": "Siu Lun",
      "seq": "12",
      "stop": "506-U120",
      "lat": "22.38551",
      "long": "113.9767"
    }
  ],
  "mtrbus_506_I": [
    {
      "company": "mtrbus",
      "id": "mtrbus_506_I",
      "stop_id": "mtrbus_506_I_506-D010",
      "route": "506",
      "dir": "I",
      "from_tc": "兆麟",
      "from_en": "Siu Lun",
      "to_tc": "屯門碼頭",
      "to_en": "Tuen Mun Ferry Pier",
      "name_tc": "兆麟",
      "name_en": "Siu Lun",
      "seq": "1",
      "stop": "506-D010",
      "lat": "22.38551",
      "long": "113.9767"
    },
    {
      "company": "mtrbus",
      "id": "mtrbus_506_I",
      "stop_id": "mtrbus_506_I_506-D020",
      "route": "506",
      "dir": "I",
      "from_tc": "兆麟",
      "from_en": "Siu Lun",
      "to_tc": "屯門碼頭",
      "to_en": "Tuen Mun Ferry Pier",
      "name_tc": "友愛邨",
      "name_en": "Yau Oi Estate",
      "seq": "2",
      "stop": "506-D020",
      "lat": "22.387783",
      "long": "113.975189"
    },
    {
      "company": "mtrbus",
      "id": "mtrbus_506_I",
      "stop_id": "mtrbus_506_I_506-D030",
      "route": "506",
      "dir": "I",
      "from_tc": "兆麟",
      "from_en": "Siu Lun",
      "to_tc": "屯門碼頭",
      "to_en": "Tuen Mun Ferry Pier",
      "name_tc": "輕鐵市中心站",
      "name_en": "LR Town Centre Stop",
      "seq": "3",
      "stop": "506-D030",
      "lat": "22.392125",
      "long": "113.975128"
    },
    {
      "company": "mtrbus",
      "id": "mtrbus_506_I",
      "stop_id": "mtrbus_506_I_506-D040",
      "route": "506",
      "dir": "I",
      "from_tc": "兆麟",
      "from_en": "Siu Lun",
      "to_tc": "屯門碼頭",
      "to_en": "Tuen Mun Ferry Pier",
      "name_tc": "輕鐵屯門站 (港鐵屯門站)",
      "name_en": "LR Tuen Mun Stop (MTR Tuen Mun Station)",
      "seq": "4",
      "stop": "506-D040",
      "lat": "22.393937",
      "long": "113.973896"
    },
    {
      "company": "mtrbus",
      "id": "mtrbus_506_I",
      "stop_id": "mtrbus_506_I_506-D050",
      "route": "506",
      "dir": "I",
      "from_tc": "兆麟",
      "from_en": "Siu Lun",
      "to_tc": "屯門碼頭",
      "to_en": "Tuen Mun Ferry Pier",
      "name_tc": "輕鐵建安站",
      "name_en": "LR Kin On Stop",
      "seq": "5",
      "stop": "506-D050",
      "lat": "22.394687",
      "long": "113.970746"
    },
    {
      "company": "mtrbus",
      "id": "mtrbus_506_I",
      "stop_id": "mtrbus_506_I_506-D060",
      "route": "506",
      "dir": "I",
      "from_tc": "兆麟",
      "from_en": "Siu Lun",
      "to_tc": "屯門碼頭",
      "to_en": "Tuen Mun Ferry Pier",
      "name_tc": "輕鐵青雲站",
      "name_en": "LR Tsing Wun Stop",
      "seq": "6",
      "stop": "506-D060",
      "lat": "22.393382",
      "long": "113.967707"
    },
    {
      "company": "mtrbus",
      "id": "mtrbus_506_I",
      "stop_id": "mtrbus_506_I_506-D070",
      "route": "506",
      "dir": "I",
      "from_tc": "兆麟",
      "from_en": "Siu Lun",
      "to_tc": "屯門碼頭",
      "to_en": "Tuen Mun Ferry Pier",
      "name_tc": "聖彼得堂",
      "name_en": "SKH St. Peter's Church",
      "seq": "7",
      "stop": "506-D070",
      "lat": "22.391722",
      "long": "113.967726"
    },
    {
      "company": "mtrbus",
      "id": "mtrbus_506_I",
      "stop_id": "mtrbus_506_I_506-D080",
      "route": "506",
      "dir": "I",
      "from_tc": "兆麟",
      "from_en": "Siu Lun",
      "to_tc": "屯門碼頭",
      "to_en": "Tuen Mun Ferry Pier",
      "name_tc": "富健花園",
      "name_en": "Glorious Garden",
      "seq": "8",
      "stop": "506-D080",
      "lat": "22.383618",
      "long": "113.964478"
    },
    {
      "company": "mtrbus",
      "id": "mtrbus_506_I",
      "stop_id": "mtrbus_506_I_506-D090",
      "route": "506",
      "dir": "I",
      "from_tc": "兆麟",
      "from_en": "Siu Lun",
      "to_tc": "屯門碼頭",
      "to_en": "Tuen Mun Ferry Pier",
      "name_tc": "新屯門中心",
      "name_en": "Sun Tuen Mun Centre",
      "seq": "9",
      "stop": "506-D090",
      "lat": "22.382269",
      "long": "113.963833"
    },
    {
      "company": "mtrbus",
      "id": "mtrbus_506_I",
      "stop_id": "mtrbus_506_I_506-D100",
      "route": "506",
      "dir": "I",
      "from_tc": "兆麟",
      "from_en": "Siu Lun",
      "to_tc": "屯門碼頭",
      "to_en": "Tuen Mun Ferry Pier",
      "name_tc": "輕鐵蝴蝶站",
      "name_en": "LR Butterfly Stop",
      "seq": "10",
      "stop": "506-D100",
      "lat": "22.377547",
      "long": "113.961481"
    },
    {
      "company": "mtrbus",
      "id": "mtrbus_506_I",
      "stop_id": "mtrbus_506_I_506-D110",
      "route": "506",
      "dir": "I",
      "from_tc": "兆麟",
      "from_en": "Siu Lun",
      "to_tc": "屯門碼頭",
      "to_en": "Tuen Mun Ferry Pier",
      "name_tc": "蝴蝶邨蝶心樓",
      "name_en": "Tip Sum House, Butterfly Estate",
      "seq": "11",
      "stop": "506-D110",
      "lat": "22.374219",
      "long": "113.962106"
    },
    {
      "company": "mtrbus",
      "id": "mtrbus_506_I",
      "stop_id": "mtrbus_506_I_506-D120",
      "route": "506",
      "dir": "I",
      "from_tc": "兆麟",
      "from_en": "Siu Lun",
      "to_tc": "屯門碼頭",
      "to_en": "Tuen Mun Ferry Pier",
      "name_tc": "湖景邨湖碧樓",
      "name_en": "Wu Pik House, Wu King Estate",
      "seq": "12",
      "stop": "506-D120",
      "lat": "22.373549",
      "long": "113.964341"
    },
    {
      "company": "mtrbus",
      "id": "mtrbus_506_I",
      "stop_id": "mtrbus_506_I_506-D130",
      "route": "506",
      "dir": "I",
      "from_tc": "兆麟",
      "from_en": "Siu Lun",
      "to_tc": "屯門碼頭",
      "to_en": "Tuen Mun Ferry Pier",
      "name_tc": "海翠花園",
      "name_en": "Pierhead Garden",
      "seq": "13",
      "stop": "506-D130",
      "lat": "22.373192",
      "long": "113.966053"
    },
    {
      "company": "mtrbus",
      "id": "mtrbus_506_I",
      "stop_id": "mtrbus_506_I_506-U011",
      "route": "506",
      "dir": "I",
      "from_tc": "兆麟",
      "from_en": "Siu Lun",
      "to_tc": "屯門碼頭",
      "to_en": "Tuen Mun Ferry Pier",
      "name_tc": "屯門碼頭",
      "name_en": "Tuen Mun Ferry Pier",
      "seq": "14",
      "stop": "506-U011",
      "lat": "22.372986",
      "long": "113.966502"
    }
  ],
  "mtrbus_K51_O": [
    {
      "company": "mtrbus",
      "id": "mtrbus_K51_O",
      "stop_id": "mtrbus_K51_O_K51-U010",
      "route": "K51",
      "dir": "O",
      "from_tc": "富泰",
      "from_en": "Fu Tai",
      "to_tc": "大欖",
      "to_en": "Tai Lam",
      "name_tc": "富泰",
      "name_en": "Fu Tai",
      "seq": "1",
      "stop": "K51-U010",
      "lat": "22.413286",
      "long": "113.982895"
    },
    {
      "company": "mtrbus",
      "id": "mtrbus_K51_O",
      "stop_id": "mtrbus_K51_O_K51-U020",
      "route": "K51",
      "dir": "O",
      "from_tc": "富泰",
      "from_en": "Fu Tai",
      "to_tc": "大欖",
      "to_en": "Tai Lam",
      "name_tc": "聚康山莊",
      "name_en": "Beneville",
      "seq": "2",
      "stop": "K51-U020",
      "lat": "22.412025",
      "long": "113.983771"
    },
    {
      "company": "mtrbus",
      "id": "mtrbus_K51_O",
      "stop_id": "mtrbus_K51_O_K51-U030",
      "route": "K51",
      "dir": "O",
      "from_tc": "富泰",
      "from_en": "Fu Tai",
      "to_tc": "大欖",
      "to_en": "Tai Lam",
      "name_tc": "嶺南大學",
      "name_en": "Lingnan University",
      "seq": "3",
      "stop": "K51-U030",
      "lat": "22.41059",
      "long": "113.982387"
    },
    {
      "company": "mtrbus",
      "id": "mtrbus_K51_O",
      "stop_id": "mtrbus_K51_O_K51-U040",
      "route": "K51",
      "dir": "O",
      "from_tc": "富泰",
      "from_en": "Fu Tai",
      "to_tc": "大欖",
      "to_en": "Tai Lam",
      "name_tc": "彩暉花園",
      "name_en": "Brilliant Garden",
      "seq": "4",
      "stop": "K51-U040",
      "lat": "22.408575",
      "long": "113.980046"
    },
    {
      "company": "mtrbus",
      "id": "mtrbus_K51_O",
      "stop_id": "mtrbus_K51_O_K51-U050",
      "route": "K51",
      "dir": "O",
      "from_tc": "富泰",
      "from_en": "Fu Tai",
      "to_tc": "大欖",
      "to_en": "Tai Lam",
      "name_tc": "港鐵兆康站 (南) (輕鐵兆康站)",
      "name_en": "MTR Siu Hong Station (South) (LR Siu Hong Stop)",
      "seq": "5",
      "stop": "K51-U050",
      "lat": "22.410247",
      "long": "113.978583"
    },
    {
      "company": "mtrbus",
      "id": "mtrbus_K51_O",
      "stop_id": "mtrbus_K51_O_K51-U060",
      "route": "K51",
      "dir": "O",
      "from_tc": "富泰",
      "from_en": "Fu Tai",
      "to_tc": "大欖",
      "to_en": "Tai Lam",
      "name_tc": "井財街",
      "name_en": "Tseng Choi Street",
      "seq": "6",
      "stop": "K51-U060",
      "lat": "22.40205",
      "long": "113.9776"
    },
    {
      "company": "mtrbus",
      "id": "mtrbus_K51_O",
      "stop_id": "mtrbus_K51_O_K51-U070",
      "route": "K51",
      "dir": "O",
      "from_tc": "富泰",
      "from_en": "Fu Tai",
      "to_tc": "大欖",
      "to_en": "Tai Lam",
      "name_tc": "雅都商場",
      "name_en": "ACME Shopping Arcade",
      "seq": "7",
      "stop": "K51-U070",
      "lat": "22.39834",
      "long": "113.9752"
    },
    {
      "company": "mtrbus",
      "id": "mtrbus_K51_O",
      "stop_id": "mtrbus_K51_O_K51-U080",
      "route": "K51",
      "dir": "O",
      "from_tc": "富泰",
      "from_en": "Fu Tai",
      "to_tc": "大欖",
      "to_en": "Tai Lam",
      "name_tc": "德政圍 (港鐵屯門站)",
      "name_en": "Tak Ching Court (MTR Tuen Mun Station)",
      "seq": "8",
      "stop": "K51-U080",
      "lat": "22.39494",
      "long": "113.9746"
    },
    {
      "company": "mtrbus",
      "id": "mtrbus_K51_O",
      "stop_id": "mtrbus_K51_O_K51-U090",
      "route": "K51",
      "dir": "O",
      "from_tc": "富泰",
      "from_en": "Fu Tai",
      "to_tc": "大欖",
      "to_en": "Tai Lam",
      "name_tc": "屯門市中心 (輕鐵市中心站)",
      "name_en": "Tuen Mun Town Centre (LR Town Centre Stop)",
      "seq": "9",
      "stop": "K51-U090",
      "lat": "22.39153",
      "long": "113.9755"
    },
    {
      "company": "mtrbus",
      "id": "mtrbus_K51_O",
      "stop_id": "mtrbus_K51_O_K51-U100",
      "route": "K51",
      "dir": "O",
      "from_tc": "富泰",
      "from_en": "Fu Tai",
      "to_tc": "大欖",
      "to_en": "Tai Lam",
      "name_tc": "屯門官立中學",
      "name_en": "Tuen Mun Government Secondary School",
      "seq": "10",
      "stop": "K51-U100",
      "lat": "22.3906",
      "long": "113.9788"
    },
    {
      "company": "mtrbus",
      "id": "mtrbus_K51_O",
      "stop_id": "mtrbus_K51_O_K51-U110",
      "route": "K51",
      "dir": "O",
      "from_tc": "富泰",
      "from_en": "Fu Tai",
      "to_tc": "大欖",
      "to_en": "Tai Lam",
      "name_tc": "恒順園",
      "name_en": "Handsome Court",
      "seq": "11",
      "stop": "K51-U110",
      "lat": "22.38771",
      "long": "113.9807"
    },
    {
      "company": "mtrbus",
      "id": "mtrbus_K51_O",
      "stop_id": "mtrbus_K51_O_K51-U120",
      "route": "K51",
      "dir": "O",
      "from_tc": "富泰",
      "from_en": "Fu Tai",
      "to_tc": "大欖",
      "to_en": "Tai Lam",
      "name_tc": "恒豐園",
      "name_en": "Harvest Garden",
      "seq": "12",
      "stop": "K51-U120",
      "lat": "22.38519",
      "long": "113.981"
    },
    {
      "company": "mtrbus",
      "id": "mtrbus_K51_O",
      "stop_id": "mtrbus_K51_O_K51-U130",
      "route": "K51",
      "dir": "O",
      "from_tc": "富泰",
      "from_en": "Fu Tai",
      "to_tc": "大欖",
      "to_en": "Tai Lam",
      "name_tc": "三聖邨",
      "name_en": "Sam Shing Estate",
      "seq": "13",
      "stop": "K51-U130",
      "lat": "22.381748",
      "long": "113.978862"
    },
    {
      "company": "mtrbus",
      "id": "mtrbus_K51_O",
      "stop_id": "mtrbus_K51_O_K51-U140",
      "route": "K51",
      "dir": "O",
      "from_tc": "富泰",
      "from_en": "Fu Tai",
      "to_tc": "大欖",
      "to_en": "Tai Lam",
      "name_tc": "青山灣",
      "name_en": "Castle Peak Beach",
      "seq": "14",
      "stop": "K51-U140",
      "lat": "22.378898",
      "long": "113.980751"
    },
    {
      "company": "mtrbus",
      "id": "mtrbus_K51_O",
      "stop_id": "mtrbus_K51_O_K51-U150",
      "route": "K51",
      "dir": "O",
      "from_tc": "富泰",
      "from_en": "Fu Tai",
      "to_tc": "大欖",
      "to_en": "Tai Lam",
      "name_tc": "海景花園",
      "name_en": "Seaview Garden",
      "seq": "15",
      "stop": "K51-U150",
      "lat": "22.377938",
      "long": "113.983475"
    },
    {
      "company": "mtrbus",
      "id": "mtrbus_K51_O",
      "stop_id": "mtrbus_K51_O_K51-U160",
      "route": "K51",
      "dir": "O",
      "from_tc": "富泰",
      "from_en": "Fu Tai",
      "to_tc": "大欖",
      "to_en": "Tai Lam",
      "name_tc": "咖啡灣",
      "name_en": "Cafeteria Beach",
      "seq": "16",
      "stop": "K51-U160",
      "lat": "22.374926",
      "long": "113.986745"
    },
    {
      "company": "mtrbus",
      "id": "mtrbus_K51_O",
      "stop_id": "mtrbus_K51_O_K51-U170",
      "route": "K51",
      "dir": "O",
      "from_tc": "富泰",
      "from_en": "Fu Tai",
      "to_tc": "大欖",
      "to_en": "Tai Lam",
      "name_tc": "黃金泳灘",
      "name_en": "Golden Beach",
      "seq": "17",
      "stop": "K51-U170",
      "lat": "22.373784",
      "long": "113.990756"
    },
    {
      "company": "mtrbus",
      "id": "mtrbus_K51_O",
      "stop_id": "mtrbus_K51_O_K51-U180",
      "route": "K51",
      "dir": "O",
      "from_tc": "富泰",
      "from_en": "Fu Tai",
      "to_tc": "大欖",
      "to_en": "Tai Lam",
      "name_tc": "香港黃金海岸",
      "name_en": "Hong Kong Gold Coast",
      "seq": "18",
      "stop": "K51-U180",
      "lat": "22.372025",
      "long": "113.993574"
    },
    {
      "company": "mtrbus",
      "id": "mtrbus_K51_O",
      "stop_id": "mtrbus_K51_O_K51-U190",
      "route": "K51",
      "dir": "O",
      "from_tc": "富泰",
      "from_en": "Fu Tai",
      "to_tc": "大欖",
      "to_en": "Tai Lam",
      "name_tc": "嘉禾里村",
      "name_en": "Kar Wo Lei Tsuen",
      "seq": "19",
      "stop": "K51-U190",
      "lat": "22.36945",
      "long": "113.9954"
    },
    {
      "company": "mtrbus",
      "id": "mtrbus_K51_O",
      "stop_id": "mtrbus_K51_O_K51-U200",
      "route": "K51",
      "dir": "O",
      "from_tc": "富泰",
      "from_en": "Fu Tai",
      "to_tc": "大欖",
      "to_en": "Tai Lam",
      "name_tc": "小秀村",
      "name_en": "Siu Sau Tsuen",
      "seq": "20",
      "stop": "K51-U200",
      "lat": "22.36817",
      "long": "113.9991"
    },
    {
      "company": "mtrbus",
      "id": "mtrbus_K51_O",
      "stop_id": "mtrbus_K51_O_K51-U210",
      "route": "K51",
      "dir": "O",
      "from_tc": "富泰",
      "from_en": "Fu Tai",
      "to_tc": "大欖",
      "to_en": "Tai Lam",
      "name_tc": "愛琴灣",
      "name_en": "The Aegean",
      "seq": "21",
      "stop": "K51-U210",
      "lat": "22.36627",
      "long": "114.0033"
    },
    {
      "company": "mtrbus",
      "id": "mtrbus_K51_O",
      "stop_id": "mtrbus_K51_O_K51-U220",
      "route": "K51",
      "dir": "O",
      "from_tc": "富泰",
      "from_en": "Fu Tai",
      "to_tc": "大欖",
      "to_en": "Tai Lam",
      "name_tc": "小欖新村",
      "name_en": "Siu Lam San Tsuen",
      "seq": "22",
      "stop": "K51-U220",
      "lat": "22.36638",
      "long": "114.0063"
    },
    {
      "company": "mtrbus",
      "id": "mtrbus_K51_O",
      "stop_id": "mtrbus_K51_O_K51-U230",
      "route": "K51",
      "dir": "O",
      "from_tc": "富泰",
      "from_en": "Fu Tai",
      "to_tc": "大欖",
      "to_en": "Tai Lam",
      "name_tc": "小欖村",
      "name_en": "Siu Lam Tsuen",
      "seq": "23",
      "stop": "K51-U230",
      "lat": "22.3663",
      "long": "114.0113"
    },
    {
      "company": "mtrbus",
      "id": "mtrbus_K51_O",
      "stop_id": "mtrbus_K51_O_K51-U240",
      "route": "K51",
      "dir": "O",
      "from_tc": "富泰",
      "from_en": "Fu Tai",
      "to_tc": "大欖",
      "to_en": "Tai Lam",
      "name_tc": "小欖澄麗路",
      "name_en": "Ching Lai Road Siu Lam",
      "seq": "24",
      "stop": "K51-U240",
      "lat": "22.36497",
      "long": "114.0133"
    },
    {
      "company": "mtrbus",
      "id": "mtrbus_K51_O",
      "stop_id": "mtrbus_K51_O_K51-U250",
      "route": "K51",
      "dir": "O",
      "from_tc": "富泰",
      "from_en": "Fu Tai",
      "to_tc": "大欖",
      "to_en": "Tai Lam",
      "name_tc": "大欖",
      "name_en": "Tai Lam",
      "seq": "25",
      "stop": "K51-U250",
      "lat": "22.362495",
      "long": "114.019113"
    }
  ],
  "mtrbus_K51_I": [
    {
      "company": "mtrbus",
      "id": "mtrbus_K51_I",
      "stop_id": "mtrbus_K51_I_K51-D010",
      "route": "K51",
      "dir": "I",
      "from_tc": "大欖",
      "from_en": "Tai Lam",
      "to_tc": "富泰",
      "to_en": "Fu Tai",
      "name_tc": "大欖",
      "name_en": "Tai Lam",
      "seq": "1",
      "stop": "K51-D010",
      "lat": "22.362495",
      "long": "114.019113"
    },
    {
      "company": "mtrbus",
      "id": "mtrbus_K51_I",
      "stop_id": "mtrbus_K51_I_K51-D020",
      "route": "K51",
      "dir": "I",
      "from_tc": "大欖",
      "from_en": "Tai Lam",
      "to_tc": "富泰",
      "to_en": "Fu Tai",
      "name_tc": "小欖",
      "name_en": "Siu Lam",
      "seq": "2",
      "stop": "K51-D020",
      "lat": "22.364165",
      "long": "114.014994"
    },
    {
      "company": "mtrbus",
      "id": "mtrbus_K51_I",
      "stop_id": "mtrbus_K51_I_K51-D030",
      "route": "K51",
      "dir": "I",
      "from_tc": "大欖",
      "from_en": "Tai Lam",
      "to_tc": "富泰",
      "to_en": "Fu Tai",
      "name_tc": "小欖澄麗路",
      "name_en": "Ching Lai Road Siu Lam",
      "seq": "3",
      "stop": "K51-D030",
      "lat": "22.365696",
      "long": "114.01244"
    },
    {
      "company": "mtrbus",
      "id": "mtrbus_K51_I",
      "stop_id": "mtrbus_K51_I_K51-D040",
      "route": "K51",
      "dir": "I",
      "from_tc": "大欖",
      "from_en": "Tai Lam",
      "to_tc": "富泰",
      "to_en": "Fu Tai",
      "name_tc": "小欖村",
      "name_en": "Siu Lam Tsuen",
      "seq": "4",
      "stop": "K51-D040",
      "lat": "22.366338",
      "long": "114.00949"
    },
    {
      "company": "mtrbus",
      "id": "mtrbus_K51_I",
      "stop_id": "mtrbus_K51_I_K51-D050",
      "route": "K51",
      "dir": "I",
      "from_tc": "大欖",
      "from_en": "Tai Lam",
      "to_tc": "富泰",
      "to_en": "Fu Tai",
      "name_tc": "小欖新村",
      "name_en": "Siu Lam San Tsuen",
      "seq": "5",
      "stop": "K51-D050",
      "lat": "22.366102",
      "long": "114.005524"
    },
    {
      "company": "mtrbus",
      "id": "mtrbus_K51_I",
      "stop_id": "mtrbus_K51_I_K51-D060",
      "route": "K51",
      "dir": "I",
      "from_tc": "大欖",
      "from_en": "Tai Lam",
      "to_tc": "富泰",
      "to_en": "Fu Tai",
      "name_tc": "愛琴灣",
      "name_en": "The Aegean",
      "seq": "6",
      "stop": "K51-D060",
      "lat": "22.366573",
      "long": "114.001616"
    },
    {
      "company": "mtrbus",
      "id": "mtrbus_K51_I",
      "stop_id": "mtrbus_K51_I_K51-D070",
      "route": "K51",
      "dir": "I",
      "from_tc": "大欖",
      "from_en": "Tai Lam",
      "to_tc": "富泰",
      "to_en": "Fu Tai",
      "name_tc": "小秀上村",
      "name_en": "Siu Sau Sheung Tsuen",
      "seq": "7",
      "stop": "K51-D070",
      "lat": "22.368003",
      "long": "113.999085"
    },
    {
      "company": "mtrbus",
      "id": "mtrbus_K51_I",
      "stop_id": "mtrbus_K51_I_K51-D080",
      "route": "K51",
      "dir": "I",
      "from_tc": "大欖",
      "from_en": "Tai Lam",
      "to_tc": "富泰",
      "to_en": "Fu Tai",
      "name_tc": "龍珠島",
      "name_en": "Pearl Island",
      "seq": "8",
      "stop": "K51-D080",
      "lat": "22.368035",
      "long": "113.996264"
    },
    {
      "company": "mtrbus",
      "id": "mtrbus_K51_I",
      "stop_id": "mtrbus_K51_I_K51-D090",
      "route": "K51",
      "dir": "I",
      "from_tc": "大欖",
      "from_en": "Tai Lam",
      "to_tc": "富泰",
      "to_en": "Fu Tai",
      "name_tc": "香港黃金海岸",
      "name_en": "Hong Kong Gold Coast",
      "seq": "9",
      "stop": "K51-D090",
      "lat": "22.371285",
      "long": "113.993882"
    },
    {
      "company": "mtrbus",
      "id": "mtrbus_K51_I",
      "stop_id": "mtrbus_K51_I_K51-D100",
      "route": "K51",
      "dir": "I",
      "from_tc": "大欖",
      "from_en": "Tai Lam",
      "to_tc": "富泰",
      "to_en": "Fu Tai",
      "name_tc": "黃金泳灘",
      "name_en": "Golden Beach",
      "seq": "10",
      "stop": "K51-D100",
      "lat": "22.373628",
      "long": "113.991213"
    },
    {
      "company": "mtrbus",
      "id": "mtrbus_K51_I",
      "stop_id": "mtrbus_K51_I_K51-D110",
      "route": "K51",
      "dir": "I",
      "from_tc": "大欖",
      "from_en": "Tai Lam",
      "to_tc": "富泰",
      "to_en": "Fu Tai",
      "name_tc": "咖啡灣",
      "name_en": "Cafeteria Beach",
      "seq": "11",
      "stop": "K51-D110",
      "lat": "22.3759",
      "long": "113.985635"
    },
    {
      "company": "mtrbus",
      "id": "mtrbus_K51_I",
      "stop_id": "mtrbus_K51_I_K51-D120",
      "route": "K51",
      "dir": "I",
      "from_tc": "大欖",
      "from_en": "Tai Lam",
      "to_tc": "富泰",
      "to_en": "Fu Tai",
      "name_tc": "碧翠花園",
      "name_en": "Bayview Terrace",
      "seq": "12",
      "stop": "K51-D120",
      "lat": "22.377927",
      "long": "113.983242"
    },
    {
      "company": "mtrbus",
      "id": "mtrbus_K51_I",
      "stop_id": "mtrbus_K51_I_K51-D130",
      "route": "K51",
      "dir": "I",
      "from_tc": "大欖",
      "from_en": "Tai Lam",
      "to_tc": "富泰",
      "to_en": "Fu Tai",
      "name_tc": "青山灣碼頭",
      "name_en": "Castle Peak Bay Pier",
      "seq": "13",
      "stop": "K51-D130",
      "lat": "22.378957",
      "long": "113.980602"
    },
    {
      "company": "mtrbus",
      "id": "mtrbus_K51_I",
      "stop_id": "mtrbus_K51_I_K51-D140",
      "route": "K51",
      "dir": "I",
      "from_tc": "大欖",
      "from_en": "Tai Lam",
      "to_tc": "富泰",
      "to_en": "Fu Tai",
      "name_tc": "三聖邨",
      "name_en": "Sam Shing Estate",
      "seq": "14",
      "stop": "K51-D140",
      "lat": "22.381214",
      "long": "113.979092"
    },
    {
      "company": "mtrbus",
      "id": "mtrbus_K51_I",
      "stop_id": "mtrbus_K51_I_K51-D150",
      "route": "K51",
      "dir": "I",
      "from_tc": "大欖",
      "from_en": "Tai Lam",
      "to_tc": "富泰",
      "to_en": "Fu Tai",
      "name_tc": "恆福花園 (輕鐵三聖站)",
      "name_en": "Hanford Garden (LR Sam Shing Stop)",
      "seq": "15",
      "stop": "K51-D150",
      "lat": "22.382064",
      "long": "113.977151"
    },
    {
      "company": "mtrbus",
      "id": "mtrbus_K51_I",
      "stop_id": "mtrbus_K51_I_K51-D160",
      "route": "K51",
      "dir": "I",
      "from_tc": "大欖",
      "from_en": "Tai Lam",
      "to_tc": "富泰",
      "to_en": "Fu Tai",
      "name_tc": "胡陳金枝中學",
      "name_en": "Mrs Aw Boon Haw Secondary School",
      "seq": "16",
      "stop": "K51-D160",
      "lat": "22.383774",
      "long": "113.97939"
    },
    {
      "company": "mtrbus",
      "id": "mtrbus_K51_I",
      "stop_id": "mtrbus_K51_I_K51-D170",
      "route": "K51",
      "dir": "I",
      "from_tc": "大欖",
      "from_en": "Tai Lam",
      "to_tc": "富泰",
      "to_en": "Fu Tai",
      "name_tc": "青善遊樂場",
      "name_en": "Tsing Sin Playground",
      "seq": "17",
      "stop": "K51-D170",
      "lat": "22.384602",
      "long": "113.980638"
    },
    {
      "company": "mtrbus",
      "id": "mtrbus_K51_I",
      "stop_id": "mtrbus_K51_I_K51-D180",
      "route": "K51",
      "dir": "I",
      "from_tc": "大欖",
      "from_en": "Tai Lam",
      "to_tc": "富泰",
      "to_en": "Fu Tai",
      "name_tc": "置樂花園",
      "name_en": "Chi Lok Fa Yuen",
      "seq": "18",
      "stop": "K51-D180",
      "lat": "22.387355",
      "long": "113.98069"
    },
    {
      "company": "mtrbus",
      "id": "mtrbus_K51_I",
      "stop_id": "mtrbus_K51_I_K51-D190",
      "route": "K51",
      "dir": "I",
      "from_tc": "大欖",
      "from_en": "Tai Lam",
      "to_tc": "富泰",
      "to_en": "Fu Tai",
      "name_tc": "屯門官立中學",
      "name_en": "Tuen Mun Government Secondary School",
      "seq": "19",
      "stop": "K51-D190",
      "lat": "22.390433",
      "long": "113.978805"
    },
    {
      "company": "mtrbus",
      "id": "mtrbus_K51_I",
      "stop_id": "mtrbus_K51_I_K51-D200",
      "route": "K51",
      "dir": "I",
      "from_tc": "大欖",
      "from_en": "Tai Lam",
      "to_tc": "富泰",
      "to_en": "Fu Tai",
      "name_tc": "輕鐵市中心站",
      "name_en": "LR Town Centre Stop",
      "seq": "20",
      "stop": "K51-D200",
      "lat": "22.392116",
      "long": "113.975082"
    },
    {
      "company": "mtrbus",
      "id": "mtrbus_K51_I",
      "stop_id": "mtrbus_K51_I_K51-D210",
      "route": "K51",
      "dir": "I",
      "from_tc": "大欖",
      "from_en": "Tai Lam",
      "to_tc": "富泰",
      "to_en": "Fu Tai",
      "name_tc": "港鐵屯門站 (輕鐵屯門站)",
      "name_en": "MTR Tuen Mun Station (LR Tuen Mun Stop)",
      "seq": "21",
      "stop": "K51-D210",
      "lat": "22.395021",
      "long": "113.974444"
    },
    {
      "company": "mtrbus",
      "id": "mtrbus_K51_I",
      "stop_id": "mtrbus_K51_I_K51-D220",
      "route": "K51",
      "dir": "I",
      "from_tc": "大欖",
      "from_en": "Tai Lam",
      "to_tc": "富泰",
      "to_en": "Fu Tai",
      "name_tc": "聖公會聖西門呂明才中學",
      "name_en": "SKH St. Simon's Lui Ming Choi Secondary School",
      "seq": "22",
      "stop": "K51-D220",
      "lat": "22.397311",
      "long": "113.974853"
    },
    {
      "company": "mtrbus",
      "id": "mtrbus_K51_I",
      "stop_id": "mtrbus_K51_I_K51-D230",
      "route": "K51",
      "dir": "I",
      "from_tc": "大欖",
      "from_en": "Tai Lam",
      "to_tc": "富泰",
      "to_en": "Fu Tai",
      "name_tc": "景峰花園",
      "name_en": "Prime View Garden",
      "seq": "23",
      "stop": "K51-D230",
      "lat": "22.40334",
      "long": "113.979247"
    },
    {
      "company": "mtrbus",
      "id": "mtrbus_K51_I",
      "stop_id": "mtrbus_K51_I_K51-D240",
      "route": "K51",
      "dir": "I",
      "from_tc": "大欖",
      "from_en": "Tai Lam",
      "to_tc": "富泰",
      "to_en": "Fu Tai",
      "name_tc": "輕鐵鳳地站",
      "name_en": "LR Fung Tei Stop",
      "seq": "24",
      "stop": "K51-D240",
      "lat": "22.407254",
      "long": "113.978641"
    },
    {
      "company": "mtrbus",
      "id": "mtrbus_K51_I",
      "stop_id": "mtrbus_K51_I_K51-D250",
      "route": "K51",
      "dir": "I",
      "from_tc": "大欖",
      "from_en": "Tai Lam",
      "to_tc": "富泰",
      "to_en": "Fu Tai",
      "name_tc": "港鐵兆康站 (南) (輕鐵兆康站)",
      "name_en": "MTR Siu Hong Station (South) (LR Siu Hong Stop)",
      "seq": "25",
      "stop": "K51-D250",
      "lat": "22.410378",
      "long": "113.978607"
    },
    {
      "company": "mtrbus",
      "id": "mtrbus_K51_I",
      "stop_id": "mtrbus_K51_I_K51-D260",
      "route": "K51",
      "dir": "I",
      "from_tc": "大欖",
      "from_en": "Tai Lam",
      "to_tc": "富泰",
      "to_en": "Fu Tai",
      "name_tc": "彩暉花園",
      "name_en": "Brilliant Garden",
      "seq": "26",
      "stop": "K51-D260",
      "lat": "22.408779",
      "long": "113.980397"
    },
    {
      "company": "mtrbus",
      "id": "mtrbus_K51_I",
      "stop_id": "mtrbus_K51_I_K51-D270",
      "route": "K51",
      "dir": "I",
      "from_tc": "大欖",
      "from_en": "Tai Lam",
      "to_tc": "富泰",
      "to_en": "Fu Tai",
      "name_tc": "嶺南大學",
      "name_en": "Lingnan University",
      "seq": "27",
      "stop": "K51-D270",
      "lat": "22.410694",
      "long": "113.982212"
    },
    {
      "company": "mtrbus",
      "id": "mtrbus_K51_I",
      "stop_id": "mtrbus_K51_I_K51-D280",
      "route": "K51",
      "dir": "I",
      "from_tc": "大欖",
      "from_en": "Tai Lam",
      "to_tc": "富泰",
      "to_en": "Fu Tai",
      "name_tc": "倚嶺南庭",
      "name_en": "South Hillcrest",
      "seq": "28",
      "stop": "K51-D280",
      "lat": "22.411927",
      "long": "113.983128"
    },
    {
      "company": "mtrbus",
      "id": "mtrbus_K51_I",
      "stop_id": "mtrbus_K51_I_K51-D290",
      "route": "K51",
      "dir": "I",
      "from_tc": "大欖",
      "from_en": "Tai Lam",
      "to_tc": "富泰",
      "to_en": "Fu Tai",
      "name_tc": "富泰",
      "name_en": "Fu Tai",
      "seq": "29",
      "stop": "K51-D290",
      "lat": "22.413286",
      "long": "113.982895"
    }
  ],
  "mtrbus_K51A_O": [
    {
      "company": "mtrbus",
      "id": "mtrbus_K51A_O",
      "stop_id": "mtrbus_K51A_O_K51A-U010",
      "route": "K51A",
      "dir": "O",
      "from_tc": "富泰",
      "from_en": "Fu Tai",
      "to_tc": "掃管笏村",
      "to_en": "So Kwun Wat Tsuen",
      "name_tc": "富泰",
      "name_en": "Fu Tai",
      "seq": "1",
      "stop": "K51A-U010",
      "lat": "22.413286",
      "long": "113.982895"
    },
    {
      "company": "mtrbus",
      "id": "mtrbus_K51A_O",
      "stop_id": "mtrbus_K51A_O_K51A-U020",
      "route": "K51A",
      "dir": "O",
      "from_tc": "富泰",
      "from_en": "Fu Tai",
      "to_tc": "掃管笏村",
      "to_en": "So Kwun Wat Tsuen",
      "name_tc": "聚康山莊",
      "name_en": "Beneville",
      "seq": "2",
      "stop": "K51A-U020",
      "lat": "22.412025",
      "long": "113.983771"
    },
    {
      "company": "mtrbus",
      "id": "mtrbus_K51A_O",
      "stop_id": "mtrbus_K51A_O_K51A-U030",
      "route": "K51A",
      "dir": "O",
      "from_tc": "富泰",
      "from_en": "Fu Tai",
      "to_tc": "掃管笏村",
      "to_en": "So Kwun Wat Tsuen",
      "name_tc": "嶺南大學",
      "name_en": "Lingnan University",
      "seq": "3",
      "stop": "K51A-U030",
      "lat": "22.41059",
      "long": "113.982387"
    },
    {
      "company": "mtrbus",
      "id": "mtrbus_K51A_O",
      "stop_id": "mtrbus_K51A_O_K51A-U040",
      "route": "K51A",
      "dir": "O",
      "from_tc": "富泰",
      "from_en": "Fu Tai",
      "to_tc": "掃管笏村",
      "to_en": "So Kwun Wat Tsuen",
      "name_tc": "彩暉花園",
      "name_en": "Brilliant Garden",
      "seq": "4",
      "stop": "K51A-U040",
      "lat": "22.408575",
      "long": "113.980046"
    },
    {
      "company": "mtrbus",
      "id": "mtrbus_K51A_O",
      "stop_id": "mtrbus_K51A_O_K51A-U050",
      "route": "K51A",
      "dir": "O",
      "from_tc": "富泰",
      "from_en": "Fu Tai",
      "to_tc": "掃管笏村",
      "to_en": "So Kwun Wat Tsuen",
      "name_tc": "港鐵兆康站 (南) (輕鐵兆康站)",
      "name_en": "MTR Siu Hong Station (South) (LR Siu Hong Stop)",
      "seq": "5",
      "stop": "K51A-U050",
      "lat": "22.410247",
      "long": "113.978583"
    },
    {
      "company": "mtrbus",
      "id": "mtrbus_K51A_O",
      "stop_id": "mtrbus_K51A_O_K51A-U060",
      "route": "K51A",
      "dir": "O",
      "from_tc": "富泰",
      "from_en": "Fu Tai",
      "to_tc": "掃管笏村",
      "to_en": "So Kwun Wat Tsuen",
      "name_tc": "井財街",
      "name_en": "Tseng Choi Street",
      "seq": "6",
      "stop": "K51A-U060",
      "lat": "22.40205",
      "long": "113.9776"
    },
    {
      "company": "mtrbus",
      "id": "mtrbus_K51A_O",
      "stop_id": "mtrbus_K51A_O_K51A-U070",
      "route": "K51A",
      "dir": "O",
      "from_tc": "富泰",
      "from_en": "Fu Tai",
      "to_tc": "掃管笏村",
      "to_en": "So Kwun Wat Tsuen",
      "name_tc": "雅都商場",
      "name_en": "ACME Shopping Arcade",
      "seq": "7",
      "stop": "K51A-U070",
      "lat": "22.39834",
      "long": "113.9752"
    },
    {
      "company": "mtrbus",
      "id": "mtrbus_K51A_O",
      "stop_id": "mtrbus_K51A_O_K51A-U080",
      "route": "K51A",
      "dir": "O",
      "from_tc": "富泰",
      "from_en": "Fu Tai",
      "to_tc": "掃管笏村",
      "to_en": "So Kwun Wat Tsuen",
      "name_tc": "德政圍 (港鐵屯門站)",
      "name_en": "Tak Ching Court (MTR Tuen Mun Station)",
      "seq": "8",
      "stop": "K51A-U080",
      "lat": "22.39494",
      "long": "113.9746"
    },
    {
      "company": "mtrbus",
      "id": "mtrbus_K51A_O",
      "stop_id": "mtrbus_K51A_O_K51A-U090",
      "route": "K51A",
      "dir": "O",
      "from_tc": "富泰",
      "from_en": "Fu Tai",
      "to_tc": "掃管笏村",
      "to_en": "So Kwun Wat Tsuen",
      "name_tc": "屯門市中心 (輕鐵市中心站)",
      "name_en": "Tuen Mun Town Centre (LR Town Centre Stop)",
      "seq": "9",
      "stop": "K51A-U090",
      "lat": "22.39153",
      "long": "113.9755"
    },
    {
      "company": "mtrbus",
      "id": "mtrbus_K51A_O",
      "stop_id": "mtrbus_K51A_O_K51A-U100",
      "route": "K51A",
      "dir": "O",
      "from_tc": "富泰",
      "from_en": "Fu Tai",
      "to_tc": "掃管笏村",
      "to_en": "So Kwun Wat Tsuen",
      "name_tc": "屯門官立中學",
      "name_en": "Tuen Mun Government Secondary School",
      "seq": "10",
      "stop": "K51A-U100",
      "lat": "22.3906",
      "long": "113.9788"
    },
    {
      "company": "mtrbus",
      "id": "mtrbus_K51A_O",
      "stop_id": "mtrbus_K51A_O_K51A-U110",
      "route": "K51A",
      "dir": "O",
      "from_tc": "富泰",
      "from_en": "Fu Tai",
      "to_tc": "掃管笏村",
      "to_en": "So Kwun Wat Tsuen",
      "name_tc": "恒順園",
      "name_en": "Handsome Court",
      "seq": "11",
      "stop": "K51A-U110",
      "lat": "22.38771",
      "long": "113.9807"
    },
    {
      "company": "mtrbus",
      "id": "mtrbus_K51A_O",
      "stop_id": "mtrbus_K51A_O_K51A-U120",
      "route": "K51A",
      "dir": "O",
      "from_tc": "富泰",
      "from_en": "Fu Tai",
      "to_tc": "掃管笏村",
      "to_en": "So Kwun Wat Tsuen",
      "name_tc": "恒豐園",
      "name_en": "Harvest Garden",
      "seq": "12",
      "stop": "K51A-U120",
      "lat": "22.38519",
      "long": "113.981"
    },
    {
      "company": "mtrbus",
      "id": "mtrbus_K51A_O",
      "stop_id": "mtrbus_K51A_O_K51A-U130",
      "route": "K51A",
      "dir": "O",
      "from_tc": "富泰",
      "from_en": "Fu Tai",
      "to_tc": "掃管笏村",
      "to_en": "So Kwun Wat Tsuen",
      "name_tc": "三聖邨",
      "name_en": "Sam Shing Estate",
      "seq": "13",
      "stop": "K51A-U130",
      "lat": "22.381748",
      "long": "113.978862"
    },
    {
      "company": "mtrbus",
      "id": "mtrbus_K51A_O",
      "stop_id": "mtrbus_K51A_O_K51A-U140",
      "route": "K51A",
      "dir": "O",
      "from_tc": "富泰",
      "from_en": "Fu Tai",
      "to_tc": "掃管笏村",
      "to_en": "So Kwun Wat Tsuen",
      "name_tc": "青山灣",
      "name_en": "Castle Peak Beach",
      "seq": "14",
      "stop": "K51A-U140",
      "lat": "22.378898",
      "long": "113.980751"
    },
    {
      "company": "mtrbus",
      "id": "mtrbus_K51A_O",
      "stop_id": "mtrbus_K51A_O_K51A-U150",
      "route": "K51A",
      "dir": "O",
      "from_tc": "富泰",
      "from_en": "Fu Tai",
      "to_tc": "掃管笏村",
      "to_en": "So Kwun Wat Tsuen",
      "name_tc": "海景花園",
      "name_en": "Seaview Garden",
      "seq": "15",
      "stop": "K51A-U150",
      "lat": "22.377938",
      "long": "113.983475"
    },
    {
      "company": "mtrbus",
      "id": "mtrbus_K51A_O",
      "stop_id": "mtrbus_K51A_O_K51A-U160",
      "route": "K51A",
      "dir": "O",
      "from_tc": "富泰",
      "from_en": "Fu Tai",
      "to_tc": "掃管笏村",
      "to_en": "So Kwun Wat Tsuen",
      "name_tc": "咖啡灣",
      "name_en": "Cafeteria Beach",
      "seq": "16",
      "stop": "K51A-U160",
      "lat": "22.374926",
      "long": "113.986745"
    },
    {
      "company": "mtrbus",
      "id": "mtrbus_K51A_O",
      "stop_id": "mtrbus_K51A_O_K51A-U170",
      "route": "K51A",
      "dir": "O",
      "from_tc": "富泰",
      "from_en": "Fu Tai",
      "to_tc": "掃管笏村",
      "to_en": "So Kwun Wat Tsuen",
      "name_tc": "黃金泳灘",
      "name_en": "Golden Beach",
      "seq": "17",
      "stop": "K51A-U170",
      "lat": "22.373784",
      "long": "113.990756"
    },
    {
      "company": "mtrbus",
      "id": "mtrbus_K51A_O",
      "stop_id": "mtrbus_K51A_O_K51A-U180",
      "route": "K51A",
      "dir": "O",
      "from_tc": "富泰",
      "from_en": "Fu Tai",
      "to_tc": "掃管笏村",
      "to_en": "So Kwun Wat Tsuen",
      "name_tc": "香港黃金海岸",
      "name_en": "Hong Kong Gold Coast",
      "seq": "18",
      "stop": "K51A-U180",
      "lat": "22.372025",
      "long": "113.993574"
    },
    {
      "company": "mtrbus",
      "id": "mtrbus_K51A_O",
      "stop_id": "mtrbus_K51A_O_K51A-U190",
      "route": "K51A",
      "dir": "O",
      "from_tc": "富泰",
      "from_en": "Fu Tai",
      "to_tc": "掃管笏村",
      "to_en": "So Kwun Wat Tsuen",
      "name_tc": "愛琴海岸",
      "name_en": "Aegean Coast",
      "seq": "19",
      "stop": "K51A-U190",
      "lat": "22.371605",
      "long": "113.9954"
    },
    {
      "company": "mtrbus",
      "id": "mtrbus_K51A_O",
      "stop_id": "mtrbus_K51A_O_K51A-U200",
      "route": "K51A",
      "dir": "O",
      "from_tc": "富泰",
      "from_en": "Fu Tai",
      "to_tc": "掃管笏村",
      "to_en": "So Kwun Wat Tsuen",
      "name_tc": "掃管笏變電站",
      "name_en": "So Kwun Wat Sub-station",
      "seq": "20",
      "stop": "K51A-U200",
      "lat": "22.373878",
      "long": "113.996144"
    },
    {
      "company": "mtrbus",
      "id": "mtrbus_K51A_O",
      "stop_id": "mtrbus_K51A_O_K51A-U210",
      "route": "K51A",
      "dir": "O",
      "from_tc": "富泰",
      "from_en": "Fu Tai",
      "to_tc": "掃管笏村",
      "to_en": "So Kwun Wat Tsuen",
      "name_tc": "掃管笏村",
      "name_en": "So Kwun Wat Tsuen",
      "seq": "21",
      "stop": "K51A-U210",
      "lat": "22.375743",
      "long": "113.999829"
    },
    {
      "company": "mtrbus",
      "id": "mtrbus_K51A_O",
      "stop_id": "mtrbus_K51A_O_K51A-U220",
      "route": "K51A",
      "dir": "O",
      "from_tc": "富泰",
      "from_en": "Fu Tai",
      "to_tc": "掃管笏村",
      "to_en": "So Kwun Wat Tsuen",
      "name_tc": "掃管笏 (鄭任安夫人千禧小學)",
      "name_en": "So Kwun Wat (Mrs. Cheng Yam On Millennium School)",
      "seq": "22",
      "stop": "K51A-U220",
      "lat": "22.372023",
      "long": "114.003593"
    },
    {
      "company": "mtrbus",
      "id": "mtrbus_K51A_O",
      "stop_id": "mtrbus_K51A_O_K51A-U230",
      "route": "K51A",
      "dir": "O",
      "from_tc": "富泰",
      "from_en": "Fu Tai",
      "to_tc": "掃管笏村",
      "to_en": "So Kwun Wat Tsuen",
      "name_tc": "掃管笏路",
      "name_en": "So Kwun Wat Road",
      "seq": "23",
      "stop": "K51A-U230",
      "lat": "22.374216",
      "long": "114.002295"
    },
    {
      "company": "mtrbus",
      "id": "mtrbus_K51A_O",
      "stop_id": "mtrbus_K51A_O_K51A-U240",
      "route": "K51A",
      "dir": "O",
      "from_tc": "富泰",
      "from_en": "Fu Tai",
      "to_tc": "掃管笏村",
      "to_en": "So Kwun Wat Tsuen",
      "name_tc": "管翠路18號",
      "name_en": "18 Kwun Chui Road",
      "seq": "24",
      "stop": "K51A-U240",
      "lat": "22.373866",
      "long": "114.001024"
    },
    {
      "company": "mtrbus",
      "id": "mtrbus_K51A_O",
      "stop_id": "mtrbus_K51A_O_K51A-U250",
      "route": "K51A",
      "dir": "O",
      "from_tc": "富泰",
      "from_en": "Fu Tai",
      "to_tc": "掃管笏村",
      "to_en": "So Kwun Wat Tsuen",
      "name_tc": "掃管笏村",
      "name_en": "So Kwun Wat Tsuen",
      "seq": "25",
      "stop": "K51A-U250",
      "lat": "22.375743",
      "long": "113.999829"
    }
  ],
  "mtrbus_K51A_I": [
    {
      "company": "mtrbus",
      "id": "mtrbus_K51A_I",
      "stop_id": "mtrbus_K51A_I_K51A-D010",
      "route": "K51A",
      "dir": "I",
      "from_tc": "掃管笏村",
      "from_en": "So Kwun Wat Tsuen",
      "to_tc": "富泰",
      "to_en": "Fu Tai",
      "name_tc": "掃管笏村",
      "name_en": "So Kwun Wat Tsuen",
      "seq": "1",
      "stop": "K51A-D010",
      "lat": "22.375743",
      "long": "113.999829"
    },
    {
      "company": "mtrbus",
      "id": "mtrbus_K51A_I",
      "stop_id": "mtrbus_K51A_I_K51A-D020",
      "route": "K51A",
      "dir": "I",
      "from_tc": "掃管笏村",
      "from_en": "So Kwun Wat Tsuen",
      "to_tc": "富泰",
      "to_en": "Fu Tai",
      "name_tc": "掃管笏 (鄭任安夫人千禧小學)",
      "name_en": "So Kwun Wat (Mrs. Cheng Yam On Millennium School)",
      "seq": "2",
      "stop": "K51A-D020",
      "lat": "22.372023",
      "long": "114.003593"
    },
    {
      "company": "mtrbus",
      "id": "mtrbus_K51A_I",
      "stop_id": "mtrbus_K51A_I_K51A-D030",
      "route": "K51A",
      "dir": "I",
      "from_tc": "掃管笏村",
      "from_en": "So Kwun Wat Tsuen",
      "to_tc": "富泰",
      "to_en": "Fu Tai",
      "name_tc": "掃管笏路",
      "name_en": "So Kwun Wat Road",
      "seq": "3",
      "stop": "K51A-D030",
      "lat": "22.374216",
      "long": "114.002295"
    },
    {
      "company": "mtrbus",
      "id": "mtrbus_K51A_I",
      "stop_id": "mtrbus_K51A_I_K51A-D040",
      "route": "K51A",
      "dir": "I",
      "from_tc": "掃管笏村",
      "from_en": "So Kwun Wat Tsuen",
      "to_tc": "富泰",
      "to_en": "Fu Tai",
      "name_tc": "管翠路18號",
      "name_en": "18 Kwun Chui Road",
      "seq": "4",
      "stop": "K51A-D040",
      "lat": "22.373866",
      "long": "114.001024"
    },
    {
      "company": "mtrbus",
      "id": "mtrbus_K51A_I",
      "stop_id": "mtrbus_K51A_I_K51A-D050",
      "route": "K51A",
      "dir": "I",
      "from_tc": "掃管笏村",
      "from_en": "So Kwun Wat Tsuen",
      "to_tc": "富泰",
      "to_en": "Fu Tai",
      "name_tc": "管翠路",
      "name_en": "Kwun Chui Road",
      "seq": "5",
      "stop": "K51A-D050",
      "lat": "22.375123",
      "long": "113.997707"
    },
    {
      "company": "mtrbus",
      "id": "mtrbus_K51A_I",
      "stop_id": "mtrbus_K51A_I_K51A-D060",
      "route": "K51A",
      "dir": "I",
      "from_tc": "掃管笏村",
      "from_en": "So Kwun Wat Tsuen",
      "to_tc": "富泰",
      "to_en": "Fu Tai",
      "name_tc": "愛琴海岸",
      "name_en": "Aegean Coast",
      "seq": "6",
      "stop": "K51A-D060",
      "lat": "22.371473",
      "long": "113.995381"
    },
    {
      "company": "mtrbus",
      "id": "mtrbus_K51A_I",
      "stop_id": "mtrbus_K51A_I_K51A-D070",
      "route": "K51A",
      "dir": "I",
      "from_tc": "掃管笏村",
      "from_en": "So Kwun Wat Tsuen",
      "to_tc": "富泰",
      "to_en": "Fu Tai",
      "name_tc": "香港黃金海岸",
      "name_en": "Hong Kong Gold Coast",
      "seq": "7",
      "stop": "K51A-D070",
      "lat": "22.371294",
      "long": "113.993906"
    },
    {
      "company": "mtrbus",
      "id": "mtrbus_K51A_I",
      "stop_id": "mtrbus_K51A_I_K51A-D080",
      "route": "K51A",
      "dir": "I",
      "from_tc": "掃管笏村",
      "from_en": "So Kwun Wat Tsuen",
      "to_tc": "富泰",
      "to_en": "Fu Tai",
      "name_tc": "黃金泳灘",
      "name_en": "Golden Beach",
      "seq": "8",
      "stop": "K51A-D080",
      "lat": "22.373628",
      "long": "113.991213"
    },
    {
      "company": "mtrbus",
      "id": "mtrbus_K51A_I",
      "stop_id": "mtrbus_K51A_I_K51A-D090",
      "route": "K51A",
      "dir": "I",
      "from_tc": "掃管笏村",
      "from_en": "So Kwun Wat Tsuen",
      "to_tc": "富泰",
      "to_en": "Fu Tai",
      "name_tc": "咖啡灣",
      "name_en": "Cafeteria Beach",
      "seq": "9",
      "stop": "K51A-D090",
      "lat": "22.3759",
      "long": "113.985635"
    },
    {
      "company": "mtrbus",
      "id": "mtrbus_K51A_I",
      "stop_id": "mtrbus_K51A_I_K51A-D100",
      "route": "K51A",
      "dir": "I",
      "from_tc": "掃管笏村",
      "from_en": "So Kwun Wat Tsuen",
      "to_tc": "富泰",
      "to_en": "Fu Tai",
      "name_tc": "碧翠花園",
      "name_en": "Bayview Terrace",
      "seq": "10",
      "stop": "K51A-D100",
      "lat": "22.377927",
      "long": "113.983242"
    },
    {
      "company": "mtrbus",
      "id": "mtrbus_K51A_I",
      "stop_id": "mtrbus_K51A_I_K51A-D110",
      "route": "K51A",
      "dir": "I",
      "from_tc": "掃管笏村",
      "from_en": "So Kwun Wat Tsuen",
      "to_tc": "富泰",
      "to_en": "Fu Tai",
      "name_tc": "青山灣碼頭",
      "name_en": "Castle Peak Bay Pier",
      "seq": "11",
      "stop": "K51A-D110",
      "lat": "22.378957",
      "long": "113.980602"
    },
    {
      "company": "mtrbus",
      "id": "mtrbus_K51A_I",
      "stop_id": "mtrbus_K51A_I_K51A-D120",
      "route": "K51A",
      "dir": "I",
      "from_tc": "掃管笏村",
      "from_en": "So Kwun Wat Tsuen",
      "to_tc": "富泰",
      "to_en": "Fu Tai",
      "name_tc": "三聖邨",
      "name_en": "Sam Shing Estate",
      "seq": "12",
      "stop": "K51A-D120",
      "lat": "22.381214",
      "long": "113.979092"
    },
    {
      "company": "mtrbus",
      "id": "mtrbus_K51A_I",
      "stop_id": "mtrbus_K51A_I_K51A-D140",
      "route": "K51A",
      "dir": "I",
      "from_tc": "掃管笏村",
      "from_en": "So Kwun Wat Tsuen",
      "to_tc": "富泰",
      "to_en": "Fu Tai",
      "name_tc": "胡陳金枝中學",
      "name_en": "Mrs Aw Boon Haw Secondary School",
      "seq": "14",
      "stop": "K51A-D140",
      "lat": "22.383774",
      "long": "113.97939"
    },
    {
      "company": "mtrbus",
      "id": "mtrbus_K51A_I",
      "stop_id": "mtrbus_K51A_I_K51A-D150",
      "route": "K51A",
      "dir": "I",
      "from_tc": "掃管笏村",
      "from_en": "So Kwun Wat Tsuen",
      "to_tc": "富泰",
      "to_en": "Fu Tai",
      "name_tc": "青善遊樂場",
      "name_en": "Tsing Sin Playground",
      "seq": "15",
      "stop": "K51A-D150",
      "lat": "22.384602",
      "long": "113.980638"
    },
    {
      "company": "mtrbus",
      "id": "mtrbus_K51A_I",
      "stop_id": "mtrbus_K51A_I_K51A-D160",
      "route": "K51A",
      "dir": "I",
      "from_tc": "掃管笏村",
      "from_en": "So Kwun Wat Tsuen",
      "to_tc": "富泰",
      "to_en": "Fu Tai",
      "name_tc": "置樂花園",
      "name_en": "Chi Lok Fa Yuen",
      "seq": "16",
      "stop": "K51A-D160",
      "lat": "22.387355",
      "long": "113.98069"
    },
    {
      "company": "mtrbus",
      "id": "mtrbus_K51A_I",
      "stop_id": "mtrbus_K51A_I_K51A-D170",
      "route": "K51A",
      "dir": "I",
      "from_tc": "掃管笏村",
      "from_en": "So Kwun Wat Tsuen",
      "to_tc": "富泰",
      "to_en": "Fu Tai",
      "name_tc": "屯門官立中學",
      "name_en": "Tuen Mun Government Secondary School",
      "seq": "17",
      "stop": "K51A-D170",
      "lat": "22.390433",
      "long": "113.978805"
    },
    {
      "company": "mtrbus",
      "id": "mtrbus_K51A_I",
      "stop_id": "mtrbus_K51A_I_K51A-D180",
      "route": "K51A",
      "dir": "I",
      "from_tc": "掃管笏村",
      "from_en": "So Kwun Wat Tsuen",
      "to_tc": "富泰",
      "to_en": "Fu Tai",
      "name_tc": "輕鐵市中心站",
      "name_en": "LR Town Centre Stop",
      "seq": "18",
      "stop": "K51A-D180",
      "lat": "22.392116",
      "long": "113.975082"
    },
    {
      "company": "mtrbus",
      "id": "mtrbus_K51A_I",
      "stop_id": "mtrbus_K51A_I_K51A-D190",
      "route": "K51A",
      "dir": "I",
      "from_tc": "掃管笏村",
      "from_en": "So Kwun Wat Tsuen",
      "to_tc": "富泰",
      "to_en": "Fu Tai",
      "name_tc": "港鐵屯門站 (輕鐵屯門站)",
      "name_en": "MTR Tuen Mun Station (LR Tuen Mun Stop)",
      "seq": "19",
      "stop": "K51A-D190",
      "lat": "22.395021",
      "long": "113.974444"
    },
    {
      "company": "mtrbus",
      "id": "mtrbus_K51A_I",
      "stop_id": "mtrbus_K51A_I_K51A-D200",
      "route": "K51A",
      "dir": "I",
      "from_tc": "掃管笏村",
      "from_en": "So Kwun Wat Tsuen",
      "to_tc": "富泰",
      "to_en": "Fu Tai",
      "name_tc": "聖公會聖西門呂明才中學",
      "name_en": "SKH St. Simon's Lui Ming Choi Secondary School",
      "seq": "20",
      "stop": "K51A-D200",
      "lat": "22.397311",
      "long": "113.974853"
    },
    {
      "company": "mtrbus",
      "id": "mtrbus_K51A_I",
      "stop_id": "mtrbus_K51A_I_K51A-D210",
      "route": "K51A",
      "dir": "I",
      "from_tc": "掃管笏村",
      "from_en": "So Kwun Wat Tsuen",
      "to_tc": "富泰",
      "to_en": "Fu Tai",
      "name_tc": "景峰花園",
      "name_en": "Prime View Garden",
      "seq": "21",
      "stop": "K51A-D210",
      "lat": "22.40334",
      "long": "113.979247"
    },
    {
      "company": "mtrbus",
      "id": "mtrbus_K51A_I",
      "stop_id": "mtrbus_K51A_I_K51A-D220",
      "route": "K51A",
      "dir": "I",
      "from_tc": "掃管笏村",
      "from_en": "So Kwun Wat Tsuen",
      "to_tc": "富泰",
      "to_en": "Fu Tai",
      "name_tc": "輕鐵鳳地站",
      "name_en": "LR Fung Tei Stop",
      "seq": "22",
      "stop": "K51A-D220",
      "lat": "22.407254",
      "long": "113.978641"
    },
    {
      "company": "mtrbus",
      "id": "mtrbus_K51A_I",
      "stop_id": "mtrbus_K51A_I_K51A-D230",
      "route": "K51A",
      "dir": "I",
      "from_tc": "掃管笏村",
      "from_en": "So Kwun Wat Tsuen",
      "to_tc": "富泰",
      "to_en": "Fu Tai",
      "name_tc": "港鐵兆康站 (南) (輕鐵兆康站)",
      "name_en": "MTR Siu Hong Station (South) (LR Siu Hong Stop)",
      "seq": "23",
      "stop": "K51A-D230",
      "lat": "22.410378",
      "long": "113.978607"
    },
    {
      "company": "mtrbus",
      "id": "mtrbus_K51A_I",
      "stop_id": "mtrbus_K51A_I_K51A-D240",
      "route": "K51A",
      "dir": "I",
      "from_tc": "掃管笏村",
      "from_en": "So Kwun Wat Tsuen",
      "to_tc": "富泰",
      "to_en": "Fu Tai",
      "name_tc": "彩暉花園",
      "name_en": "Brilliant Garden",
      "seq": "24",
      "stop": "K51A-D240",
      "lat": "22.408779",
      "long": "113.980397"
    },
    {
      "company": "mtrbus",
      "id": "mtrbus_K51A_I",
      "stop_id": "mtrbus_K51A_I_K51A-D250",
      "route": "K51A",
      "dir": "I",
      "from_tc": "掃管笏村",
      "from_en": "So Kwun Wat Tsuen",
      "to_tc": "富泰",
      "to_en": "Fu Tai",
      "name_tc": "嶺南大學",
      "name_en": "Lingnan University",
      "seq": "25",
      "stop": "K51A-D250",
      "lat": "22.410694",
      "long": "113.982212"
    },
    {
      "company": "mtrbus",
      "id": "mtrbus_K51A_I",
      "stop_id": "mtrbus_K51A_I_K51A-D260",
      "route": "K51A",
      "dir": "I",
      "from_tc": "掃管笏村",
      "from_en": "So Kwun Wat Tsuen",
      "to_tc": "富泰",
      "to_en": "Fu Tai",
      "name_tc": "倚嶺南庭",
      "name_en": "South Hillcrest",
      "seq": "26",
      "stop": "K51A-D260",
      "lat": "22.411927",
      "long": "113.983128"
    },
    {
      "company": "mtrbus",
      "id": "mtrbus_K51A_I",
      "stop_id": "mtrbus_K51A_I_K51A-D270",
      "route": "K51A",
      "dir": "I",
      "from_tc": "掃管笏村",
      "from_en": "So Kwun Wat Tsuen",
      "to_tc": "富泰",
      "to_en": "Fu Tai",
      "name_tc": "富泰",
      "name_en": "Fu Tai",
      "seq": "27",
      "stop": "K51A-D270",
      "lat": "22.413286",
      "long": "113.982895"
    }
  ],
  "mtrbus_K52_O": [
    {
      "company": "mtrbus",
      "id": "mtrbus_K52_O",
      "stop_id": "mtrbus_K52_O_K52-nU010",
      "route": "K52",
      "dir": "O",
      "from_tc": "悅湖山莊",
      "from_en": "Yuet Wu Villa",
      "to_tc": "龍鼓灘",
      "to_en": "Lung Kwu Tan",
      "name_tc": "悅湖山莊",
      "name_en": "Yuet Wu Villa",
      "seq": "1",
      "stop": "K52-nU010",
      "lat": "22.375261",
      "long": "113.968532"
    },
    {
      "company": "mtrbus",
      "id": "mtrbus_K52_O",
      "stop_id": "mtrbus_K52_O_K52-nU020",
      "route": "K52",
      "dir": "O",
      "from_tc": "悅湖山莊",
      "from_en": "Yuet Wu Villa",
      "to_tc": "龍鼓灘",
      "to_en": "Lung Kwu Tan",
      "name_tc": "邁亞美海灣",
      "name_en": "Miami Beach Towers",
      "seq": "2",
      "stop": "K52-nU020",
      "lat": "22.372808",
      "long": "113.970095"
    },
    {
      "company": "mtrbus",
      "id": "mtrbus_K52_O",
      "stop_id": "mtrbus_K52_O_K52-nU030",
      "route": "K52",
      "dir": "O",
      "from_tc": "悅湖山莊",
      "from_en": "Yuet Wu Villa",
      "to_tc": "龍鼓灘",
      "to_en": "Lung Kwu Tan",
      "name_tc": "屯門碼頭",
      "name_en": "Tuen Mun Ferry Pier",
      "seq": "3",
      "stop": "K52-nU030",
      "lat": "22.372801",
      "long": "113.967391"
    },
    {
      "company": "mtrbus",
      "id": "mtrbus_K52_O",
      "stop_id": "mtrbus_K52_O_K52-nU040",
      "route": "K52",
      "dir": "O",
      "from_tc": "悅湖山莊",
      "from_en": "Yuet Wu Villa",
      "to_tc": "龍鼓灘",
      "to_en": "Lung Kwu Tan",
      "name_tc": "湖景邨湖畔樓",
      "name_en": "Wu Boon House, Wu King Estate",
      "seq": "4",
      "stop": "K52-nU040",
      "lat": "22.374496",
      "long": "113.965605"
    },
    {
      "company": "mtrbus",
      "id": "mtrbus_K52_O",
      "stop_id": "mtrbus_K52_O_K52-nU050",
      "route": "K52",
      "dir": "O",
      "from_tc": "悅湖山莊",
      "from_en": "Yuet Wu Villa",
      "to_tc": "龍鼓灘",
      "to_en": "Lung Kwu Tan",
      "name_tc": "湖景邨湖翠樓",
      "name_en": "Wu Tsui House, Wu King Estate",
      "seq": "5",
      "stop": "K52-nU050",
      "lat": "22.376739",
      "long": "113.966289"
    },
    {
      "company": "mtrbus",
      "id": "mtrbus_K52_O",
      "stop_id": "mtrbus_K52_O_K52-nU060",
      "route": "K52",
      "dir": "O",
      "from_tc": "悅湖山莊",
      "from_en": "Yuet Wu Villa",
      "to_tc": "龍鼓灘",
      "to_en": "Lung Kwu Tan",
      "name_tc": "屯門中央廣場",
      "name_en": "Tuen Mun Central Square",
      "seq": "6",
      "stop": "K52-nU060",
      "lat": "22.381216",
      "long": "113.972293"
    },
    {
      "company": "mtrbus",
      "id": "mtrbus_K52_O",
      "stop_id": "mtrbus_K52_O_K52-nU070",
      "route": "K52",
      "dir": "O",
      "from_tc": "悅湖山莊",
      "from_en": "Yuet Wu Villa",
      "to_tc": "龍鼓灘",
      "to_en": "Lung Kwu Tan",
      "name_tc": "輕鐵三聖站",
      "name_en": "LR Sam Shing Stop",
      "seq": "7",
      "stop": "K52-nU070",
      "lat": "22.382943",
      "long": "113.976283"
    },
    {
      "company": "mtrbus",
      "id": "mtrbus_K52_O",
      "stop_id": "mtrbus_K52_O_K52-nU080",
      "route": "K52",
      "dir": "O",
      "from_tc": "悅湖山莊",
      "from_en": "Yuet Wu Villa",
      "to_tc": "龍鼓灘",
      "to_en": "Lung Kwu Tan",
      "name_tc": "胡陳金枝中學",
      "name_en": "Mrs Aw Boon Haw Secondary School",
      "seq": "8",
      "stop": "K52-nU080",
      "lat": "22.383774",
      "long": "113.97939"
    },
    {
      "company": "mtrbus",
      "id": "mtrbus_K52_O",
      "stop_id": "mtrbus_K52_O_K52-nU090",
      "route": "K52",
      "dir": "O",
      "from_tc": "悅湖山莊",
      "from_en": "Yuet Wu Villa",
      "to_tc": "龍鼓灘",
      "to_en": "Lung Kwu Tan",
      "name_tc": "青善遊樂場",
      "name_en": "Tsing Sin Playground",
      "seq": "9",
      "stop": "K52-nU090",
      "lat": "22.38457",
      "long": "113.98065"
    },
    {
      "company": "mtrbus",
      "id": "mtrbus_K52_O",
      "stop_id": "mtrbus_K52_O_K52-nU100",
      "route": "K52",
      "dir": "O",
      "from_tc": "悅湖山莊",
      "from_en": "Yuet Wu Villa",
      "to_tc": "龍鼓灘",
      "to_en": "Lung Kwu Tan",
      "name_tc": "置樂花園",
      "name_en": "Chi Lok Fa Yuen",
      "seq": "10",
      "stop": "K52-nU100",
      "lat": "22.387385",
      "long": "113.980666"
    },
    {
      "company": "mtrbus",
      "id": "mtrbus_K52_O",
      "stop_id": "mtrbus_K52_O_K52-nU110",
      "route": "K52",
      "dir": "O",
      "from_tc": "悅湖山莊",
      "from_en": "Yuet Wu Villa",
      "to_tc": "龍鼓灘",
      "to_en": "Lung Kwu Tan",
      "name_tc": "屯門官立中學",
      "name_en": "Tuen Mun Government Secondary School",
      "seq": "11",
      "stop": "K52-nU110",
      "lat": "22.390462",
      "long": "113.97885"
    },
    {
      "company": "mtrbus",
      "id": "mtrbus_K52_O",
      "stop_id": "mtrbus_K52_O_K52-nU120",
      "route": "K52",
      "dir": "O",
      "from_tc": "悅湖山莊",
      "from_en": "Yuet Wu Villa",
      "to_tc": "龍鼓灘",
      "to_en": "Lung Kwu Tan",
      "name_tc": "輕鐵市中心站",
      "name_en": "LR Town Centre Stop",
      "seq": "12",
      "stop": "K52-nU120",
      "lat": "22.392116",
      "long": "113.975082"
    },
    {
      "company": "mtrbus",
      "id": "mtrbus_K52_O",
      "stop_id": "mtrbus_K52_O_K52-nU140",
      "route": "K52",
      "dir": "O",
      "from_tc": "悅湖山莊",
      "from_en": "Yuet Wu Villa",
      "to_tc": "龍鼓灘",
      "to_en": "Lung Kwu Tan",
      "name_tc": "輕鐵屯門站 (港鐵屯門站)",
      "name_en": "LR Tuen Mun Stop (MTR Tuen Mun Station)",
      "seq": "13",
      "stop": "K52-nU140",
      "lat": "22.393937",
      "long": "113.973896"
    },
    {
      "company": "mtrbus",
      "id": "mtrbus_K52_O",
      "stop_id": "mtrbus_K52_O_K52-nU150",
      "route": "K52",
      "dir": "O",
      "from_tc": "悅湖山莊",
      "from_en": "Yuet Wu Villa",
      "to_tc": "龍鼓灘",
      "to_en": "Lung Kwu Tan",
      "name_tc": "輕鐵建安站",
      "name_en": "LR Kin On Stop",
      "seq": "14",
      "stop": "K52-nU150",
      "lat": "22.394687",
      "long": "113.970746"
    },
    {
      "company": "mtrbus",
      "id": "mtrbus_K52_O",
      "stop_id": "mtrbus_K52_O_K52-nU160",
      "route": "K52",
      "dir": "O",
      "from_tc": "悅湖山莊",
      "from_en": "Yuet Wu Villa",
      "to_tc": "龍鼓灘",
      "to_en": "Lung Kwu Tan",
      "name_tc": "輕鐵青雲站",
      "name_en": "LR Tsing Wun Stop",
      "seq": "15",
      "stop": "K52-nU160",
      "lat": "22.393382",
      "long": "113.967707"
    },
    {
      "company": "mtrbus",
      "id": "mtrbus_K52_O",
      "stop_id": "mtrbus_K52_O_K52-nU170",
      "route": "K52",
      "dir": "O",
      "from_tc": "悅湖山莊",
      "from_en": "Yuet Wu Villa",
      "to_tc": "龍鼓灘",
      "to_en": "Lung Kwu Tan",
      "name_tc": "聖彼得堂",
      "name_en": "SKH St. Peter's Church",
      "seq": "16",
      "stop": "K52-nU170",
      "lat": "22.391722",
      "long": "113.967726"
    },
    {
      "company": "mtrbus",
      "id": "mtrbus_K52_O",
      "stop_id": "mtrbus_K52_O_K52-nU180",
      "route": "K52",
      "dir": "O",
      "from_tc": "悅湖山莊",
      "from_en": "Yuet Wu Villa",
      "to_tc": "龍鼓灘",
      "to_en": "Lung Kwu Tan",
      "name_tc": "富健花園",
      "name_en": "Glorious Garden",
      "seq": "17",
      "stop": "K52-nU180",
      "lat": "22.383618",
      "long": "113.964478"
    },
    {
      "company": "mtrbus",
      "id": "mtrbus_K52_O",
      "stop_id": "mtrbus_K52_O_K52-nU190",
      "route": "K52",
      "dir": "O",
      "from_tc": "悅湖山莊",
      "from_en": "Yuet Wu Villa",
      "to_tc": "龍鼓灘",
      "to_en": "Lung Kwu Tan",
      "name_tc": "新屯門中心",
      "name_en": "Sun Tuen Mun Centre",
      "seq": "18",
      "stop": "K52-nU190",
      "lat": "22.382269",
      "long": "113.963833"
    },
    {
      "company": "mtrbus",
      "id": "mtrbus_K52_O",
      "stop_id": "mtrbus_K52_O_K52-nU200",
      "route": "K52",
      "dir": "O",
      "from_tc": "悅湖山莊",
      "from_en": "Yuet Wu Villa",
      "to_tc": "龍鼓灘",
      "to_en": "Lung Kwu Tan",
      "name_tc": "輕鐵蝴蝶站",
      "name_en": "LR Butterfly Stop",
      "seq": "19",
      "stop": "K52-nU200",
      "lat": "22.377549",
      "long": "113.961472"
    },
    {
      "company": "mtrbus",
      "id": "mtrbus_K52_O",
      "stop_id": "mtrbus_K52_O_K52-nU210",
      "route": "K52",
      "dir": "O",
      "from_tc": "悅湖山莊",
      "from_en": "Yuet Wu Villa",
      "to_tc": "龍鼓灘",
      "to_en": "Lung Kwu Tan",
      "name_tc": "屯門公眾騎術學校",
      "name_en": "Tuen Mun Public Riding School",
      "seq": "20",
      "stop": "K52-nU210",
      "lat": "22.375483",
      "long": "113.959318"
    },
    {
      "company": "mtrbus",
      "id": "mtrbus_K52_O",
      "stop_id": "mtrbus_K52_O_K52-nU220",
      "route": "K52",
      "dir": "O",
      "from_tc": "悅湖山莊",
      "from_en": "Yuet Wu Villa",
      "to_tc": "龍鼓灘",
      "to_en": "Lung Kwu Tan",
      "name_tc": "蝴蝶灣公園",
      "name_en": "Butterfly Beach Park",
      "seq": "21",
      "stop": "K52-nU220",
      "lat": "22.37319",
      "long": "113.95473"
    },
    {
      "company": "mtrbus",
      "id": "mtrbus_K52_O",
      "stop_id": "mtrbus_K52_O_K52-nU230",
      "route": "K52",
      "dir": "O",
      "from_tc": "悅湖山莊",
      "from_en": "Yuet Wu Villa",
      "to_tc": "龍鼓灘",
      "to_en": "Lung Kwu Tan",
      "name_tc": "望后石",
      "name_en": "Pillar Point",
      "seq": "22",
      "stop": "K52-nU230",
      "lat": "22.368528",
      "long": "113.948898"
    },
    {
      "company": "mtrbus",
      "id": "mtrbus_K52_O",
      "stop_id": "mtrbus_K52_O_K52-nU240",
      "route": "K52",
      "dir": "O",
      "from_tc": "悅湖山莊",
      "from_en": "Yuet Wu Villa",
      "to_tc": "龍鼓灘",
      "to_en": "Lung Kwu Tan",
      "name_tc": "政府車場",
      "name_en": "Government Depot",
      "seq": "23",
      "stop": "K52-nU240",
      "lat": "22.366727",
      "long": "113.94371"
    },
    {
      "company": "mtrbus",
      "id": "mtrbus_K52_O",
      "stop_id": "mtrbus_K52_O_K52-nU250",
      "route": "K52",
      "dir": "O",
      "from_tc": "悅湖山莊",
      "from_en": "Yuet Wu Villa",
      "to_tc": "龍鼓灘",
      "to_en": "Lung Kwu Tan",
      "name_tc": "內河碼頭",
      "name_en": "River Trade Terminal",
      "seq": "24",
      "stop": "K52-nU250",
      "lat": "22.36857",
      "long": "113.93822"
    },
    {
      "company": "mtrbus",
      "id": "mtrbus_K52_O",
      "stop_id": "mtrbus_K52_O_K52-nU260",
      "route": "K52",
      "dir": "O",
      "from_tc": "悅湖山莊",
      "from_en": "Yuet Wu Villa",
      "to_tc": "龍鼓灘",
      "to_en": "Lung Kwu Tan",
      "name_tc": "環保園",
      "name_en": "EcoPark",
      "seq": "25",
      "stop": "K52-nU260",
      "lat": "22.36999",
      "long": "113.93403"
    },
    {
      "company": "mtrbus",
      "id": "mtrbus_K52_O",
      "stop_id": "mtrbus_K52_O_K52-nU270",
      "route": "K52",
      "dir": "O",
      "from_tc": "悅湖山莊",
      "from_en": "Yuet Wu Villa",
      "to_tc": "龍鼓灘",
      "to_en": "Lung Kwu Tan",
      "name_tc": "紹榮鋼鐵",
      "name_en": "Shiu Wing Steel Mill",
      "seq": "26",
      "stop": "K52-nU270",
      "lat": "22.36995",
      "long": "113.92874"
    },
    {
      "company": "mtrbus",
      "id": "mtrbus_K52_O",
      "stop_id": "mtrbus_K52_O_K52-nU280",
      "route": "K52",
      "dir": "O",
      "from_tc": "悅湖山莊",
      "from_en": "Yuet Wu Villa",
      "to_tc": "龍鼓灘",
      "to_en": "Lung Kwu Tan",
      "name_tc": "沙埔崗312號",
      "name_en": "No.312 Sha Po Kong",
      "seq": "27",
      "stop": "K52-nU280",
      "lat": "22.386382",
      "long": "113.921122"
    },
    {
      "company": "mtrbus",
      "id": "mtrbus_K52_O",
      "stop_id": "mtrbus_K52_O_K52-nU290",
      "route": "K52",
      "dir": "O",
      "from_tc": "悅湖山莊",
      "from_en": "Yuet Wu Villa",
      "to_tc": "龍鼓灘",
      "to_en": "Lung Kwu Tan",
      "name_tc": "沙埔崗177號",
      "name_en": "No.177 Sha Po Kong",
      "seq": "28",
      "stop": "K52-nU290",
      "lat": "22.388034",
      "long": "113.920786"
    },
    {
      "company": "mtrbus",
      "id": "mtrbus_K52_O",
      "stop_id": "mtrbus_K52_O_K52-nU300",
      "route": "K52",
      "dir": "O",
      "from_tc": "悅湖山莊",
      "from_en": "Yuet Wu Villa",
      "to_tc": "龍鼓灘",
      "to_en": "Lung Kwu Tan",
      "name_tc": "沙埔崗127號",
      "name_en": "No.127 Sha Po Kong",
      "seq": "29",
      "stop": "K52-nU300",
      "lat": "22.389307",
      "long": "113.920224"
    },
    {
      "company": "mtrbus",
      "id": "mtrbus_K52_O",
      "stop_id": "mtrbus_K52_O_K52-nU310",
      "route": "K52",
      "dir": "O",
      "from_tc": "悅湖山莊",
      "from_en": "Yuet Wu Villa",
      "to_tc": "龍鼓灘",
      "to_en": "Lung Kwu Tan",
      "name_tc": "龍鼓灘",
      "name_en": "Lung Kwu Tan",
      "seq": "30",
      "stop": "K52-nU310",
      "lat": "22.390617",
      "long": "113.920146"
    }
  ],
  "mtrbus_K52_I": [
    {
      "company": "mtrbus",
      "id": "mtrbus_K52_I",
      "stop_id": "mtrbus_K52_I_K52-nD010",
      "route": "K52",
      "dir": "I",
      "from_tc": "龍鼓灘",
      "from_en": "Lung Kwu Tan",
      "to_tc": "悅湖山莊",
      "to_en": "Yuet Wu Villa",
      "name_tc": "龍鼓灘",
      "name_en": "Lung Kwu Tan",
      "seq": "1",
      "stop": "K52-nD010",
      "lat": "22.390617",
      "long": "113.920146"
    },
    {
      "company": "mtrbus",
      "id": "mtrbus_K52_I",
      "stop_id": "mtrbus_K52_I_K52-nD020",
      "route": "K52",
      "dir": "I",
      "from_tc": "龍鼓灘",
      "from_en": "Lung Kwu Tan",
      "to_tc": "悅湖山莊",
      "to_en": "Yuet Wu Villa",
      "name_tc": "沙埔崗127號",
      "name_en": "No.127 Sha Po Kong",
      "seq": "2",
      "stop": "K52-nD020",
      "lat": "22.389103",
      "long": "113.920301"
    },
    {
      "company": "mtrbus",
      "id": "mtrbus_K52_I",
      "stop_id": "mtrbus_K52_I_K52-nD030",
      "route": "K52",
      "dir": "I",
      "from_tc": "龍鼓灘",
      "from_en": "Lung Kwu Tan",
      "to_tc": "悅湖山莊",
      "to_en": "Yuet Wu Villa",
      "name_tc": "沙埔崗177號",
      "name_en": "No.177 Sha Po Kong",
      "seq": "3",
      "stop": "K52-nD030",
      "lat": "22.388058",
      "long": "113.920786"
    },
    {
      "company": "mtrbus",
      "id": "mtrbus_K52_I",
      "stop_id": "mtrbus_K52_I_K52-nD040",
      "route": "K52",
      "dir": "I",
      "from_tc": "龍鼓灘",
      "from_en": "Lung Kwu Tan",
      "to_tc": "悅湖山莊",
      "to_en": "Yuet Wu Villa",
      "name_tc": "沙埔崗288號",
      "name_en": "No.288 Sha Po Kong",
      "seq": "4",
      "stop": "K52-nD040",
      "lat": "22.386623",
      "long": "113.921158"
    },
    {
      "company": "mtrbus",
      "id": "mtrbus_K52_I",
      "stop_id": "mtrbus_K52_I_K52-nD050",
      "route": "K52",
      "dir": "I",
      "from_tc": "龍鼓灘",
      "from_en": "Lung Kwu Tan",
      "to_tc": "悅湖山莊",
      "to_en": "Yuet Wu Villa",
      "name_tc": "沙埔崗351號",
      "name_en": "No.351 Sha Po Kong",
      "seq": "5",
      "stop": "K52-nD050",
      "lat": "22.385511",
      "long": "113.921257"
    },
    {
      "company": "mtrbus",
      "id": "mtrbus_K52_I",
      "stop_id": "mtrbus_K52_I_K52-nD060",
      "route": "K52",
      "dir": "I",
      "from_tc": "龍鼓灘",
      "from_en": "Lung Kwu Tan",
      "to_tc": "悅湖山莊",
      "to_en": "Yuet Wu Villa",
      "name_tc": "中電 A廠",
      "name_en": "CLP (Plant A)",
      "seq": "6",
      "stop": "K52-nD060",
      "lat": "22.38252",
      "long": "113.92102"
    },
    {
      "company": "mtrbus",
      "id": "mtrbus_K52_I",
      "stop_id": "mtrbus_K52_I_K52-nD070",
      "route": "K52",
      "dir": "I",
      "from_tc": "龍鼓灘",
      "from_en": "Lung Kwu Tan",
      "to_tc": "悅湖山莊",
      "to_en": "Yuet Wu Villa",
      "name_tc": "紹榮鋼鐵",
      "name_en": "Shiu Wing Steel Mill",
      "seq": "7",
      "stop": "K52-nD070",
      "lat": "22.37012",
      "long": "113.92898"
    },
    {
      "company": "mtrbus",
      "id": "mtrbus_K52_I",
      "stop_id": "mtrbus_K52_I_K52-nD080",
      "route": "K52",
      "dir": "I",
      "from_tc": "龍鼓灘",
      "from_en": "Lung Kwu Tan",
      "to_tc": "悅湖山莊",
      "to_en": "Yuet Wu Villa",
      "name_tc": "環保園",
      "name_en": "EcoPark",
      "seq": "8",
      "stop": "K52-nD080",
      "lat": "22.37001",
      "long": "113.93439"
    },
    {
      "company": "mtrbus",
      "id": "mtrbus_K52_I",
      "stop_id": "mtrbus_K52_I_K52-nD090",
      "route": "K52",
      "dir": "I",
      "from_tc": "龍鼓灘",
      "from_en": "Lung Kwu Tan",
      "to_tc": "悅湖山莊",
      "to_en": "Yuet Wu Villa",
      "name_tc": "內河碼頭",
      "name_en": "River Trade Terminal",
      "seq": "9",
      "stop": "K52-nD090",
      "lat": "22.36855",
      "long": "113.938063"
    },
    {
      "company": "mtrbus",
      "id": "mtrbus_K52_I",
      "stop_id": "mtrbus_K52_I_K52-nD100",
      "route": "K52",
      "dir": "I",
      "from_tc": "龍鼓灘",
      "from_en": "Lung Kwu Tan",
      "to_tc": "悅湖山莊",
      "to_en": "Yuet Wu Villa",
      "name_tc": "政府車場",
      "name_en": "Government Depot",
      "seq": "10",
      "stop": "K52-nD100",
      "lat": "22.366875",
      "long": "113.944272"
    },
    {
      "company": "mtrbus",
      "id": "mtrbus_K52_I",
      "stop_id": "mtrbus_K52_I_K52-nD110",
      "route": "K52",
      "dir": "I",
      "from_tc": "龍鼓灘",
      "from_en": "Lung Kwu Tan",
      "to_tc": "悅湖山莊",
      "to_en": "Yuet Wu Villa",
      "name_tc": "望后石",
      "name_en": "Pillar Point",
      "seq": "11",
      "stop": "K52-nD110",
      "lat": "22.368667",
      "long": "113.948837"
    },
    {
      "company": "mtrbus",
      "id": "mtrbus_K52_I",
      "stop_id": "mtrbus_K52_I_K52-nD120",
      "route": "K52",
      "dir": "I",
      "from_tc": "龍鼓灘",
      "from_en": "Lung Kwu Tan",
      "to_tc": "悅湖山莊",
      "to_en": "Yuet Wu Villa",
      "name_tc": "蝴蝶灣公園",
      "name_en": "Butterfly Beach Park",
      "seq": "12",
      "stop": "K52-nD120",
      "lat": "22.3729",
      "long": "113.954631"
    },
    {
      "company": "mtrbus",
      "id": "mtrbus_K52_I",
      "stop_id": "mtrbus_K52_I_K52-nD130",
      "route": "K52",
      "dir": "I",
      "from_tc": "龍鼓灘",
      "from_en": "Lung Kwu Tan",
      "to_tc": "悅湖山莊",
      "to_en": "Yuet Wu Villa",
      "name_tc": "屯門公眾騎術學校",
      "name_en": "Tuen Mun Public Riding School",
      "seq": "13",
      "stop": "K52-nD130",
      "lat": "22.375258",
      "long": "113.958583"
    },
    {
      "company": "mtrbus",
      "id": "mtrbus_K52_I",
      "stop_id": "mtrbus_K52_I_K52-nD140",
      "route": "K52",
      "dir": "I",
      "from_tc": "龍鼓灘",
      "from_en": "Lung Kwu Tan",
      "to_tc": "悅湖山莊",
      "to_en": "Yuet Wu Villa",
      "name_tc": "輕鐵蝴蝶站",
      "name_en": "LR Butterfly Stop",
      "seq": "14",
      "stop": "K52-nD140",
      "lat": "22.378359",
      "long": "113.961955"
    },
    {
      "company": "mtrbus",
      "id": "mtrbus_K52_I",
      "stop_id": "mtrbus_K52_I_K52-nD150",
      "route": "K52",
      "dir": "I",
      "from_tc": "龍鼓灘",
      "from_en": "Lung Kwu Tan",
      "to_tc": "悅湖山莊",
      "to_en": "Yuet Wu Villa",
      "name_tc": "輕鐵車廠站",
      "name_en": "Light Rail Depot Stop",
      "seq": "15",
      "stop": "K52-nD150",
      "lat": "22.382203",
      "long": "113.96359"
    },
    {
      "company": "mtrbus",
      "id": "mtrbus_K52_I",
      "stop_id": "mtrbus_K52_I_K52-nD160",
      "route": "K52",
      "dir": "I",
      "from_tc": "龍鼓灘",
      "from_en": "Lung Kwu Tan",
      "to_tc": "悅湖山莊",
      "to_en": "Yuet Wu Villa",
      "name_tc": "輕鐵龍門站",
      "name_en": "LR Lung Mun Stop",
      "seq": "16",
      "stop": "K52-nD160",
      "lat": "22.385399",
      "long": "113.965222"
    },
    {
      "company": "mtrbus",
      "id": "mtrbus_K52_I",
      "stop_id": "mtrbus_K52_I_K52-nD170",
      "route": "K52",
      "dir": "I",
      "from_tc": "龍鼓灘",
      "from_en": "Lung Kwu Tan",
      "to_tc": "悅湖山莊",
      "to_en": "Yuet Wu Villa",
      "name_tc": "輕鐵青雲站",
      "name_en": "LR Tsing Wun Stop",
      "seq": "17",
      "stop": "K52-nD170",
      "lat": "22.393627",
      "long": "113.96752"
    },
    {
      "company": "mtrbus",
      "id": "mtrbus_K52_I",
      "stop_id": "mtrbus_K52_I_K52-nD180",
      "route": "K52",
      "dir": "I",
      "from_tc": "龍鼓灘",
      "from_en": "Lung Kwu Tan",
      "to_tc": "悅湖山莊",
      "to_en": "Yuet Wu Villa",
      "name_tc": "輕鐵建安站",
      "name_en": "LR Kin On Stop",
      "seq": "18",
      "stop": "K52-nD180",
      "lat": "22.395064",
      "long": "113.969953"
    },
    {
      "company": "mtrbus",
      "id": "mtrbus_K52_I",
      "stop_id": "mtrbus_K52_I_K52-nD190",
      "route": "K52",
      "dir": "I",
      "from_tc": "龍鼓灘",
      "from_en": "Lung Kwu Tan",
      "to_tc": "悅湖山莊",
      "to_en": "Yuet Wu Villa",
      "name_tc": "屯門站",
      "name_en": "Tuen Mun Station",
      "seq": "19",
      "stop": "K52-nD190",
      "lat": "22.394117",
      "long": "113.973992"
    },
    {
      "company": "mtrbus",
      "id": "mtrbus_K52_I",
      "stop_id": "mtrbus_K52_I_K52-nD200",
      "route": "K52",
      "dir": "I",
      "from_tc": "龍鼓灘",
      "from_en": "Lung Kwu Tan",
      "to_tc": "悅湖山莊",
      "to_en": "Yuet Wu Villa",
      "name_tc": "屯門市中心",
      "name_en": "Tuen Mun Town Centre",
      "seq": "20",
      "stop": "K52-nD200",
      "lat": "22.391543",
      "long": "113.975435"
    },
    {
      "company": "mtrbus",
      "id": "mtrbus_K52_I",
      "stop_id": "mtrbus_K52_I_K52-nD210",
      "route": "K52",
      "dir": "I",
      "from_tc": "龍鼓灘",
      "from_en": "Lung Kwu Tan",
      "to_tc": "悅湖山莊",
      "to_en": "Yuet Wu Villa",
      "name_tc": "屯門官立中學",
      "name_en": "Tuen Mun Government Secondary School",
      "seq": "21",
      "stop": "K52-nD210",
      "lat": "22.3906",
      "long": "113.9788"
    },
    {
      "company": "mtrbus",
      "id": "mtrbus_K52_I",
      "stop_id": "mtrbus_K52_I_K52-nD220",
      "route": "K52",
      "dir": "I",
      "from_tc": "龍鼓灘",
      "from_en": "Lung Kwu Tan",
      "to_tc": "悅湖山莊",
      "to_en": "Yuet Wu Villa",
      "name_tc": "恒順園",
      "name_en": "Handsome Court",
      "seq": "22",
      "stop": "K52-nD220",
      "lat": "22.38771",
      "long": "113.9807"
    },
    {
      "company": "mtrbus",
      "id": "mtrbus_K52_I",
      "stop_id": "mtrbus_K52_I_K52-nD230",
      "route": "K52",
      "dir": "I",
      "from_tc": "龍鼓灘",
      "from_en": "Lung Kwu Tan",
      "to_tc": "悅湖山莊",
      "to_en": "Yuet Wu Villa",
      "name_tc": "恒豐園",
      "name_en": "Harvest Garden",
      "seq": "23",
      "stop": "K52-nD230",
      "lat": "22.38519",
      "long": "113.981"
    },
    {
      "company": "mtrbus",
      "id": "mtrbus_K52_I",
      "stop_id": "mtrbus_K52_I_K52-nD240",
      "route": "K52",
      "dir": "I",
      "from_tc": "龍鼓灘",
      "from_en": "Lung Kwu Tan",
      "to_tc": "悅湖山莊",
      "to_en": "Yuet Wu Villa",
      "name_tc": "輕鐵三聖站",
      "name_en": "LR Sam Shing Stop",
      "seq": "24",
      "stop": "K52-nD240",
      "lat": "22.382769",
      "long": "113.976256"
    },
    {
      "company": "mtrbus",
      "id": "mtrbus_K52_I",
      "stop_id": "mtrbus_K52_I_K52-nD250",
      "route": "K52",
      "dir": "I",
      "from_tc": "龍鼓灘",
      "from_en": "Lung Kwu Tan",
      "to_tc": "悅湖山莊",
      "to_en": "Yuet Wu Villa",
      "name_tc": "屯門中央廣場",
      "name_en": "Tuen Mun Central Square",
      "seq": "25",
      "stop": "K52-nD250",
      "lat": "22.380902",
      "long": "113.972021"
    },
    {
      "company": "mtrbus",
      "id": "mtrbus_K52_I",
      "stop_id": "mtrbus_K52_I_K52-nD260",
      "route": "K52",
      "dir": "I",
      "from_tc": "龍鼓灘",
      "from_en": "Lung Kwu Tan",
      "to_tc": "悅湖山莊",
      "to_en": "Yuet Wu Villa",
      "name_tc": "湖景邨湖翠樓",
      "name_en": "Wu Tsui House, Wu King Estate",
      "seq": "26",
      "stop": "K52-nD260",
      "lat": "22.37652",
      "long": "113.966372"
    },
    {
      "company": "mtrbus",
      "id": "mtrbus_K52_I",
      "stop_id": "mtrbus_K52_I_K52-nD270",
      "route": "K52",
      "dir": "I",
      "from_tc": "龍鼓灘",
      "from_en": "Lung Kwu Tan",
      "to_tc": "悅湖山莊",
      "to_en": "Yuet Wu Villa",
      "name_tc": "兆禧苑",
      "name_en": "Siu Hei Court",
      "seq": "27",
      "stop": "K52-nD270",
      "lat": "22.374598",
      "long": "113.965833"
    },
    {
      "company": "mtrbus",
      "id": "mtrbus_K52_I",
      "stop_id": "mtrbus_K52_I_K52-nD280",
      "route": "K52",
      "dir": "I",
      "from_tc": "龍鼓灘",
      "from_en": "Lung Kwu Tan",
      "to_tc": "悅湖山莊",
      "to_en": "Yuet Wu Villa",
      "name_tc": "海翠花園",
      "name_en": "Pierhead Garden",
      "seq": "28",
      "stop": "K52-nD280",
      "lat": "22.373244",
      "long": "113.965958"
    },
    {
      "company": "mtrbus",
      "id": "mtrbus_K52_I",
      "stop_id": "mtrbus_K52_I_K52-nD290",
      "route": "K52",
      "dir": "I",
      "from_tc": "龍鼓灘",
      "from_en": "Lung Kwu Tan",
      "to_tc": "悅湖山莊",
      "to_en": "Yuet Wu Villa",
      "name_tc": "邁亞美海灣",
      "name_en": "Miami Beach Towers",
      "seq": "29",
      "stop": "K52-nD290",
      "lat": "22.372843",
      "long": "113.969696"
    },
    {
      "company": "mtrbus",
      "id": "mtrbus_K52_I",
      "stop_id": "mtrbus_K52_I_K52-nD300",
      "route": "K52",
      "dir": "I",
      "from_tc": "龍鼓灘",
      "from_en": "Lung Kwu Tan",
      "to_tc": "悅湖山莊",
      "to_en": "Yuet Wu Villa",
      "name_tc": "悅湖山莊",
      "name_en": "Yuet Wu Villa",
      "seq": "30",
      "stop": "K52-nD300",
      "lat": "22.375257",
      "long": "113.968481"
    }
  ],
  "mtrbus_K52A_O": [
    {
      "company": "mtrbus",
      "id": "mtrbus_K52A_O",
      "stop_id": "mtrbus_K52A_O_K52A-U010",
      "route": "K52A",
      "dir": "O",
      "from_tc": "屯門站 (輕鐵屯門站)",
      "from_en": "Tuen Mun Station (LR Tuen Mun Stop)",
      "to_tc": "曾咀 (曾咀靈灰安置所)",
      "to_en": "Tsang Tsui (Tsang Tsui Columbarium)",
      "name_tc": "屯門站 (輕鐵屯門站)",
      "name_en": "Tuen Mun Station (LR Tuen Mun Stop)",
      "seq": "1",
      "stop": "K52A-U010",
      "lat": "22.394225",
      "long": "113.973358"
    },
    {
      "company": "mtrbus",
      "id": "mtrbus_K52A_O",
      "stop_id": "mtrbus_K52A_O_K52A-U015",
      "route": "K52A",
      "dir": "O",
      "from_tc": "屯門站 (輕鐵屯門站)",
      "from_en": "Tuen Mun Station (LR Tuen Mun Stop)",
      "to_tc": "曾咀 (曾咀靈灰安置所)",
      "to_en": "Tsang Tsui (Tsang Tsui Columbarium)",
      "name_tc": "輕鐵屯門站 (請留意服務時間)*",
      "name_en": "LR Tuen Mun Stop (Please refer to Service Time)*",
      "seq": "2",
      "stop": "K52A-U015",
      "lat": "22.393937",
      "long": "113.973896"
    },
    {
      "company": "mtrbus",
      "id": "mtrbus_K52A_O",
      "stop_id": "mtrbus_K52A_O_K52A-U020",
      "route": "K52A",
      "dir": "O",
      "from_tc": "屯門站 (輕鐵屯門站)",
      "from_en": "Tuen Mun Station (LR Tuen Mun Stop)",
      "to_tc": "曾咀 (曾咀靈灰安置所)",
      "to_en": "Tsang Tsui (Tsang Tsui Columbarium)",
      "name_tc": "輕鐵建安站",
      "name_en": "LR Kin On Stop",
      "seq": "3",
      "stop": "K52A-U020",
      "lat": "22.394687",
      "long": "113.970746"
    },
    {
      "company": "mtrbus",
      "id": "mtrbus_K52A_O",
      "stop_id": "mtrbus_K52A_O_K52A-U030",
      "route": "K52A",
      "dir": "O",
      "from_tc": "屯門站 (輕鐵屯門站)",
      "from_en": "Tuen Mun Station (LR Tuen Mun Stop)",
      "to_tc": "曾咀 (曾咀靈灰安置所)",
      "to_en": "Tsang Tsui (Tsang Tsui Columbarium)",
      "name_tc": "輕鐵青雲站",
      "name_en": "LR Tsing Wun Stop",
      "seq": "4",
      "stop": "K52A-U030",
      "lat": "22.393382",
      "long": "113.967707"
    },
    {
      "company": "mtrbus",
      "id": "mtrbus_K52A_O",
      "stop_id": "mtrbus_K52A_O_K52A-U040",
      "route": "K52A",
      "dir": "O",
      "from_tc": "屯門站 (輕鐵屯門站)",
      "from_en": "Tuen Mun Station (LR Tuen Mun Stop)",
      "to_tc": "曾咀 (曾咀靈灰安置所)",
      "to_en": "Tsang Tsui (Tsang Tsui Columbarium)",
      "name_tc": "聖彼得堂",
      "name_en": "SKH St. Peter's Church",
      "seq": "5",
      "stop": "K52A-U040",
      "lat": "22.391722",
      "long": "113.967726"
    },
    {
      "company": "mtrbus",
      "id": "mtrbus_K52A_O",
      "stop_id": "mtrbus_K52A_O_K52A-U050",
      "route": "K52A",
      "dir": "O",
      "from_tc": "屯門站 (輕鐵屯門站)",
      "from_en": "Tuen Mun Station (LR Tuen Mun Stop)",
      "to_tc": "曾咀 (曾咀靈灰安置所)",
      "to_en": "Tsang Tsui (Tsang Tsui Columbarium)",
      "name_tc": "富健花園",
      "name_en": "Glorious Garden",
      "seq": "6",
      "stop": "K52A-U050",
      "lat": "22.383618",
      "long": "113.964478"
    },
    {
      "company": "mtrbus",
      "id": "mtrbus_K52A_O",
      "stop_id": "mtrbus_K52A_O_K52A-U060",
      "route": "K52A",
      "dir": "O",
      "from_tc": "屯門站 (輕鐵屯門站)",
      "from_en": "Tuen Mun Station (LR Tuen Mun Stop)",
      "to_tc": "曾咀 (曾咀靈灰安置所)",
      "to_en": "Tsang Tsui (Tsang Tsui Columbarium)",
      "name_tc": "新屯門中心",
      "name_en": "Sun Tuen Mun Centre",
      "seq": "7",
      "stop": "K52A-U060",
      "lat": "22.382269",
      "long": "113.963833"
    },
    {
      "company": "mtrbus",
      "id": "mtrbus_K52A_O",
      "stop_id": "mtrbus_K52A_O_K52A-U070",
      "route": "K52A",
      "dir": "O",
      "from_tc": "屯門站 (輕鐵屯門站)",
      "from_en": "Tuen Mun Station (LR Tuen Mun Stop)",
      "to_tc": "曾咀 (曾咀靈灰安置所)",
      "to_en": "Tsang Tsui (Tsang Tsui Columbarium)",
      "name_tc": "輕鐵蝴蝶站",
      "name_en": "LR Butterfly Stop",
      "seq": "8",
      "stop": "K52A-U070",
      "lat": "22.377547",
      "long": "113.961481"
    },
    {
      "company": "mtrbus",
      "id": "mtrbus_K52A_O",
      "stop_id": "mtrbus_K52A_O_K52A-U080",
      "route": "K52A",
      "dir": "O",
      "from_tc": "屯門站 (輕鐵屯門站)",
      "from_en": "Tuen Mun Station (LR Tuen Mun Stop)",
      "to_tc": "曾咀 (曾咀靈灰安置所)",
      "to_en": "Tsang Tsui (Tsang Tsui Columbarium)",
      "name_tc": "屯門公眾騎術學校",
      "name_en": "Tuen Mun Public Riding School",
      "seq": "9",
      "stop": "K52A-U080",
      "lat": "22.375483",
      "long": "113.959318"
    },
    {
      "company": "mtrbus",
      "id": "mtrbus_K52A_O",
      "stop_id": "mtrbus_K52A_O_K52A-U090",
      "route": "K52A",
      "dir": "O",
      "from_tc": "屯門站 (輕鐵屯門站)",
      "from_en": "Tuen Mun Station (LR Tuen Mun Stop)",
      "to_tc": "曾咀 (曾咀靈灰安置所)",
      "to_en": "Tsang Tsui (Tsang Tsui Columbarium)",
      "name_tc": "蝴蝶灣公園",
      "name_en": "Butterfly Beach Park",
      "seq": "10",
      "stop": "K52A-U090",
      "lat": "22.37319",
      "long": "113.95473"
    },
    {
      "company": "mtrbus",
      "id": "mtrbus_K52A_O",
      "stop_id": "mtrbus_K52A_O_K52A-U100",
      "route": "K52A",
      "dir": "O",
      "from_tc": "屯門站 (輕鐵屯門站)",
      "from_en": "Tuen Mun Station (LR Tuen Mun Stop)",
      "to_tc": "曾咀 (曾咀靈灰安置所)",
      "to_en": "Tsang Tsui (Tsang Tsui Columbarium)",
      "name_tc": "望后石",
      "name_en": "Pillar Point",
      "seq": "11",
      "stop": "K52A-U100",
      "lat": "22.368528",
      "long": "113.948898"
    },
    {
      "company": "mtrbus",
      "id": "mtrbus_K52A_O",
      "stop_id": "mtrbus_K52A_O_K52A-U110",
      "route": "K52A",
      "dir": "O",
      "from_tc": "屯門站 (輕鐵屯門站)",
      "from_en": "Tuen Mun Station (LR Tuen Mun Stop)",
      "to_tc": "曾咀 (曾咀靈灰安置所)",
      "to_en": "Tsang Tsui (Tsang Tsui Columbarium)",
      "name_tc": "政府車場",
      "name_en": "Government Depot",
      "seq": "12",
      "stop": "K52A-U110",
      "lat": "22.366727",
      "long": "113.94371"
    },
    {
      "company": "mtrbus",
      "id": "mtrbus_K52A_O",
      "stop_id": "mtrbus_K52A_O_K52A-U120",
      "route": "K52A",
      "dir": "O",
      "from_tc": "屯門站 (輕鐵屯門站)",
      "from_en": "Tuen Mun Station (LR Tuen Mun Stop)",
      "to_tc": "曾咀 (曾咀靈灰安置所)",
      "to_en": "Tsang Tsui (Tsang Tsui Columbarium)",
      "name_tc": "內河碼頭",
      "name_en": "River Trade Terminal",
      "seq": "13",
      "stop": "K52A-U120",
      "lat": "22.36857",
      "long": "113.93822"
    },
    {
      "company": "mtrbus",
      "id": "mtrbus_K52A_O",
      "stop_id": "mtrbus_K52A_O_K52A-U130",
      "route": "K52A",
      "dir": "O",
      "from_tc": "屯門站 (輕鐵屯門站)",
      "from_en": "Tuen Mun Station (LR Tuen Mun Stop)",
      "to_tc": "曾咀 (曾咀靈灰安置所)",
      "to_en": "Tsang Tsui (Tsang Tsui Columbarium)",
      "name_tc": "環保園",
      "name_en": "EcoPark",
      "seq": "14",
      "stop": "K52A-U130",
      "lat": "22.36999",
      "long": "113.93403"
    },
    {
      "company": "mtrbus",
      "id": "mtrbus_K52A_O",
      "stop_id": "mtrbus_K52A_O_K52A-U140",
      "route": "K52A",
      "dir": "O",
      "from_tc": "屯門站 (輕鐵屯門站)",
      "from_en": "Tuen Mun Station (LR Tuen Mun Stop)",
      "to_tc": "曾咀 (曾咀靈灰安置所)",
      "to_en": "Tsang Tsui (Tsang Tsui Columbarium)",
      "name_tc": "紹榮鋼鐵",
      "name_en": "Shiu Wing Steel Mill",
      "seq": "15",
      "stop": "K52A-U140",
      "lat": "22.36995",
      "long": "113.92874"
    },
    {
      "company": "mtrbus",
      "id": "mtrbus_K52A_O",
      "stop_id": "mtrbus_K52A_O_K52A-U150",
      "route": "K52A",
      "dir": "O",
      "from_tc": "屯門站 (輕鐵屯門站)",
      "from_en": "Tuen Mun Station (LR Tuen Mun Stop)",
      "to_tc": "曾咀 (曾咀靈灰安置所)",
      "to_en": "Tsang Tsui (Tsang Tsui Columbarium)",
      "name_tc": "沙埔崗312號",
      "name_en": "No.312 Sha Po Kong",
      "seq": "16",
      "stop": "K52A-U150",
      "lat": "22.386382",
      "long": "113.921122"
    },
    {
      "company": "mtrbus",
      "id": "mtrbus_K52A_O",
      "stop_id": "mtrbus_K52A_O_K52A-U160",
      "route": "K52A",
      "dir": "O",
      "from_tc": "屯門站 (輕鐵屯門站)",
      "from_en": "Tuen Mun Station (LR Tuen Mun Stop)",
      "to_tc": "曾咀 (曾咀靈灰安置所)",
      "to_en": "Tsang Tsui (Tsang Tsui Columbarium)",
      "name_tc": "沙埔崗177號",
      "name_en": "No.177 Sha Po Kong",
      "seq": "17",
      "stop": "K52A-U160",
      "lat": "22.388034",
      "long": "113.920786"
    },
    {
      "company": "mtrbus",
      "id": "mtrbus_K52A_O",
      "stop_id": "mtrbus_K52A_O_K52A-U170",
      "route": "K52A",
      "dir": "O",
      "from_tc": "屯門站 (輕鐵屯門站)",
      "from_en": "Tuen Mun Station (LR Tuen Mun Stop)",
      "to_tc": "曾咀 (曾咀靈灰安置所)",
      "to_en": "Tsang Tsui (Tsang Tsui Columbarium)",
      "name_tc": "沙埔崗127號",
      "name_en": "No.127 Sha Po Kong",
      "seq": "18",
      "stop": "K52A-U170",
      "lat": "22.389307",
      "long": "113.920224"
    },