{
  "mtrbus_K12_O": [
    {
      "company": "mtrbus",
      "route_id": "mtrbus_K12_O",
      "route": "K12",
      "dir": "O",
      "from": "大埔墟站",
      "to": "八號花園",
      "name": "大埔墟站",
      "seq": "1",
      "stop": "K12-U010",
      "lat": "22.444414",
      "long": "114.169471"
    },
    {
      "company": "mtrbus",
      "route_id": "mtrbus_K12_O",
      "route": "K12",
      "dir": "O",
      "from": "大埔墟站",
      "to": "八號花園",
      "name": "大埔超級城",
      "seq": "2",
      "stop": "K12-U020",
      "lat": "22.450971",
      "long": "114.169957"
    },
    {
      "company": "mtrbus",
      "route_id": "mtrbus_K12_O",
      "route": "K12",
      "dir": "O",
      "from": "大埔墟站",
      "to": "八號花園",
      "name": "八號花園",
      "seq": "3",
      "stop": "K12-U030",
      "lat": "22.452836",
      "long": "114.166496"
    }
  ],
  "mtrbus_K12_I": [
    {
      "company": "mtrbus",
      "route_id": "mtrbus_K12_I",
      "route": "K12",
      "dir": "I",
      "from": "八號花園",
      "to": "大埔墟站",
      "name": "八號花園",
      "seq": "1",
      "stop": "K12-D010",
      "lat": "22.452836",
      "long": "114.166496"
    },
    {
      "company": "mtrbus",
      "route_id": "mtrbus_K12_I",
      "route": "K12",
      "dir": "I",
      "from": "八號花園",
      "to": "大埔墟站",
      "name": "大埔超級城",
      "seq": "2",
      "stop": "K12-D020",
      "lat": "22.451278",
      "long": "114.170087"
    },
    {
      "company": "mtrbus",
      "route_id": "mtrbus_K12_I",
      "route": "K12",
      "dir": "I",
      "from": "八號花園",
      "to": "大埔墟站",
      "name": "新達廣場",
      "seq": "3",
      "stop": "K12-D030",
      "lat": "22.443712",
      "long": "114.16991"
    },
    {
      "company": "mtrbus",
      "route_id": "mtrbus_K12_I",
      "route": "K12",
      "dir": "I",
      "from": "八號花園",
      "to": "大埔墟站",
      "name": "大埔墟站",
      "seq": "4",
      "stop": "K12-D040",
      "lat": "22.444414",
      "long": "114.169471"
    }
  ],
  "mtrbus_K14_O": [
    {
      "company": "mtrbus",
      "route_id": "mtrbus_K14_O",
      "route": "K14",
      "dir": "O",
      "from": "大埔超級城",
      "to": "大埔墟站",
      "name": "大埔超級城",
      "seq": "1",
      "stop": "K14-D010",
      "lat": "22.451278",
      "long": "114.170087"
    },
    {
      "company": "mtrbus",
      "route_id": "mtrbus_K14_O",
      "route": "K14",
      "dir": "O",
      "from": "大埔超級城",
      "to": "大埔墟站",
      "name": "新達廣場",
      "seq": "2",
      "stop": "K14-D020",
      "lat": "22.443712",
      "long": "114.16991"
    },
    {
      "company": "mtrbus",
      "route_id": "mtrbus_K14_O",
      "route": "K14",
      "dir": "O",
      "from": "大埔超級城",
      "to": "大埔墟站",
      "name": "大埔墟站",
      "seq": "3",
      "stop": "K14-D030",
      "lat": "22.444414",
      "long": "114.169471"
    }
  ],
  "mtrbus_K17_O": [
    {
      "company": "mtrbus",
      "route_id": "mtrbus_K17_O",
      "route": "K17",
      "dir": "O",
      "from": "大埔墟站",
      "to": "富善",
      "name": "大埔墟站",
      "seq": "1",
      "stop": "K17-U010",
      "lat": "22.444414",
      "long": "114.169471"
    },
    {
      "company": "mtrbus",
      "route_id": "mtrbus_K17_O",
      "route": "K17",
      "dir": "O",
      "from": "大埔墟站",
      "to": "富善",
      "name": "大埔中心第五期",
      "seq": "2",
      "stop": "K17-U020",
      "lat": "22.453021",
      "long": "114.172331"
    },
    {
      "company": "mtrbus",
      "route_id": "mtrbus_K17_O",
      "route": "K17",
      "dir": "O",
      "from": "大埔墟站",
      "to": "富善",
      "name": "怡雅苑",
      "seq": "3",
      "stop": "K17-U030",
      "lat": "22.454538",
      "long": "114.174428"
    },
    {
      "company": "mtrbus",
      "route_id": "mtrbus_K17_O",
      "route": "K17",
      "dir": "O",
      "from": "大埔墟站",
      "to": "富善",
      "name": "富善",
      "seq": "4",
      "stop": "K17-U040",
      "lat": "22.454322",
      "long": "114.174098"
    }
  ],
  "mtrbus_K17_I": [
    {
      "company": "mtrbus",
      "route_id": "mtrbus_K17_I",
      "route": "K17",
      "dir": "I",
      "from": "富善",
      "to": "大埔墟站",
      "name": "富善",
      "seq": "1",
      "stop": "K17-D010",
      "lat": "22.454322",
      "long": "114.174098"
    },
    {
      "company": "mtrbus",
      "route_id": "mtrbus_K17_I",
      "route": "K17",
      "dir": "I",
      "from": "富善",
      "to": "大埔墟站",
      "name": "新達廣場",
      "seq": "2",
      "stop": "K17-D020",
      "lat": "22.443712",
      "long": "114.16991"
    },
    {
      "company": "mtrbus",
      "route_id": "mtrbus_K17_I",
      "route": "K17",
      "dir": "I",
      "from": "富善",
      "to": "大埔墟站",
      "name": "大埔墟站",
      "seq": "3",
      "stop": "K17-D030",
      "lat": "22.444414",
      "long": "114.169471"
    }
  ],
  "mtrbus_K18_O": [
    {
      "company": "mtrbus",
      "route_id": "mtrbus_K18_O",
      "route": "K18",
      "dir": "O",
      "from": "大埔墟站",
      "to": "廣福",
      "name": "大埔墟站",
      "seq": "1",
      "stop": "K18-U010",
      "lat": "22.444414",
      "long": "114.169471"
    },
    {
      "company": "mtrbus",
      "route_id": "mtrbus_K18_O",
      "route": "K18",
      "dir": "O",
      "from": "大埔墟站",
      "to": "廣福",
      "name": "宏福苑",
      "seq": "2",
      "stop": "K18-U020",
      "lat": "22.447531",
      "long": "114.17473"
    },
    {
      "company": "mtrbus",
      "route_id": "mtrbus_K18_O",
      "route": "K18",
      "dir": "O",
      "from": "大埔墟站",
      "to": "廣福",
      "name": "廣福",
      "seq": "3",
      "stop": "K18-U030",
      "lat": "22.4487",
      "long": "114.174398"
    }
  ],
  "mtrbus_K18_I": [
    {
      "company": "mtrbus",
      "route_id": "mtrbus_K18_I",
      "route": "K18",
      "dir": "I",
      "from": "廣福",
      "to": "大埔墟站",
      "name": "廣福",
      "seq": "1",
      "stop": "K18-D010",
      "lat": "22.4487",
      "long": "114.174398"
    },
    {
      "company": "mtrbus",
      "route_id": "mtrbus_K18_I",
      "route": "K18",
      "dir": "I",
      "from": "廣福",
      "to": "大埔墟站",
      "name": "新達廣場",
      "seq": "2",
      "stop": "K18-D020",
      "lat": "22.443712",
      "long": "114.16991"
    },
    {
      "company": "mtrbus",
      "route_id": "mtrbus_K18_I",
      "route": "K18",
      "dir": "I",
      "from": "廣福",
      "to": "大埔墟站",
      "name": "大埔墟站",
      "seq": "3",
      "stop": "K18-D030",
      "lat": "22.444414",
      "long": "114.169471"
    }
  ],
  "mtrbus_506_O": [
    {
      "company": "mtrbus",
      "route_id": "mtrbus_506_O",
      "route": "506",
      "dir": "O",
      "from": "屯門碼頭",
      "to": "兆麟",
      "name": "屯門碼頭",
      "seq": "1",
      "stop": "506-U010",
      "lat": "22.372986",
      "long": "113.966502"
    },
    {
      "company": "mtrbus",
      "route_id": "mtrbus_506_O",
      "route": "506",
      "dir": "O",
      "from": "屯門碼頭",
      "to": "兆麟",
      "name": "美樂花園",
      "seq": "2",
      "stop": "506-U020",
      "lat": "22.375834",
      "long": "113.960628"
    },
    {
      "company": "mtrbus",
      "route_id": "mtrbus_506_O",
      "route": "506",
      "dir": "O",
      "from": "屯門碼頭",
      "to": "兆麟",
      "name": "輕鐵蝴蝶站",
      "seq": "3",
      "stop": "506-U030",
      "lat": "22.378364",
      "long": "113.961965"
    },
    {
      "company": "mtrbus",
      "route_id": "mtrbus_506_O",
      "route": "506",
      "dir": "O",
      "from": "屯門碼頭",
      "to": "兆麟",
      "name": "輕鐵車廠站",
      "seq": "4",
      "stop": "506-U040",
      "lat": "22.382203",
      "long": "113.96359"
    },
    {
      "company": "mtrbus",
      "route_id": "mtrbus_506_O",
      "route": "506",
      "dir": "O",
      "from": "屯門碼頭",
      "to": "兆麟",
      "name": "輕鐵龍門站",
      "seq": "5",
      "stop": "506-U050",
      "lat": "22.385399",
      "long": "113.965222"
    },
    {
      "company": "mtrbus",
      "route_id": "mtrbus_506_O",
      "route": "506",
      "dir": "O",
      "from": "屯門碼頭",
      "to": "兆麟",
      "name": "輕鐵青雲站",
      "seq": "6",
      "stop": "506-U060",
      "lat": "22.393627",
      "long": "113.96752"
    },
    {
      "company": "mtrbus",
      "route_id": "mtrbus_506_O",
      "route": "506",
      "dir": "O",
      "from": "屯門碼頭",
      "to": "兆麟",
      "name": "輕鐵建安站",
      "seq": "7",
      "stop": "506-U070",
      "lat": "22.395064",
      "long": "113.969953"
    },
    {
      "company": "mtrbus",
      "route_id": "mtrbus_506_O",
      "route": "506",
      "dir": "O",
      "from": "屯門碼頭",
      "to": "兆麟",
      "name": "港鐵屯門站",
      "seq": "8",
      "stop": "506-U080",
      "lat": "22.394117",
      "long": "113.973992"
    },
    {
      "company": "mtrbus",
      "route_id": "mtrbus_506_O",
      "route": "506",
      "dir": "O",
      "from": "屯門碼頭",
      "to": "兆麟",
      "name": "屯門市中心",
      "seq": "9",
      "stop": "506-U090",
      "lat": "22.391352",
      "long": "113.975474"
    },
    {
      "company": "mtrbus",
      "route_id": "mtrbus_506_O",
      "route": "506",
      "dir": "O",
      "from": "屯門碼頭",
      "to": "兆麟",
      "name": "安定邨",
      "seq": "10",
      "stop": "506-U100",
      "lat": "22.387312",
      "long": "113.975341"
    },
    {
      "company": "mtrbus",
      "route_id": "mtrbus_506_O",
      "route": "506",
      "dir": "O",
      "from": "屯門碼頭",
      "to": "兆麟",
      "name": "輕鐵三聖站",
      "seq": "11",
      "stop": "506-U110",
      "lat": "22.382916",
      "long": "113.976276"
    },
    {
      "company": "mtrbus",
      "route_id": "mtrbus_506_O",
      "route": "506",
      "dir": "O",
      "from": "屯門碼頭",
      "to": "兆麟",
      "name": "兆麟",
      "seq": "12",
      "stop": "506-U120",
      "lat": "22.38551",
      "long": "113.9767"
    }
  ],
  "mtrbus_506_I": [
    {
      "company": "mtrbus",
      "route_id": "mtrbus_506_I",
      "route": "506",
      "dir": "I",
      "from": "兆麟",
      "to": "屯門碼頭",
      "name": "兆麟",
      "seq": "1",
      "stop": "506-D010",
      "lat": "22.38551",
      "long": "113.9767"
    },
    {
      "company": "mtrbus",
      "route_id": "mtrbus_506_I",
      "route": "506",
      "dir": "I",
      "from": "兆麟",
      "to": "屯門碼頭",
      "name": "友愛邨",
      "seq": "2",
      "stop": "506-D020",
      "lat": "22.387783",
      "long": "113.975189"
    },
    {
      "company": "mtrbus",
      "route_id": "mtrbus_506_I",
      "route": "506",
      "dir": "I",
      "from": "兆麟",
      "to": "屯門碼頭",
      "name": "輕鐵市中心站",
      "seq": "3",
      "stop": "506-D030",
      "lat": "22.392125",
      "long": "113.975128"
    },
    {
      "company": "mtrbus",
      "route_id": "mtrbus_506_I",
      "route": "506",
      "dir": "I",
      "from": "兆麟",
      "to": "屯門碼頭",
      "name": "輕鐵屯門站 (港鐵屯門站)",
      "seq": "4",
      "stop": "506-D040",
      "lat": "22.393937",
      "long": "113.973896"
    },
    {
      "company": "mtrbus",
      "route_id": "mtrbus_506_I",
      "route": "506",
      "dir": "I",
      "from": "兆麟",
      "to": "屯門碼頭",
      "name": "輕鐵建安站",
      "seq": "5",
      "stop": "506-D050",
      "lat": "22.394687",
      "long": "113.970746"
    },
    {
      "company": "mtrbus",
      "route_id": "mtrbus_506_I",
      "route": "506",
      "dir": "I",
      "from": "兆麟",
      "to": "屯門碼頭",
      "name": "輕鐵青雲站",
      "seq": "6",
      "stop": "506-D060",
      "lat": "22.393382",
      "long": "113.967707"
    },
    {
      "company": "mtrbus",
      "route_id": "mtrbus_506_I",
      "route": "506",
      "dir": "I",
      "from": "兆麟",
      "to": "屯門碼頭",
      "name": "聖彼得堂",
      "seq": "7",
      "stop": "506-D070",
      "lat": "22.391722",
      "long": "113.967726"
    },
    {
      "company": "mtrbus",
      "route_id": "mtrbus_506_I",
      "route": "506",
      "dir": "I",
      "from": "兆麟",
      "to": "屯門碼頭",
      "name": "富健花園",
      "seq": "8",
      "stop": "506-D080",
      "lat": "22.383618",
      "long": "113.964478"
    },
    {
      "company": "mtrbus",
      "route_id": "mtrbus_506_I",
      "route": "506",
      "dir": "I",
      "from": "兆麟",
      "to": "屯門碼頭",
      "name": "新屯門中心",
      "seq": "9",
      "stop": "506-D090",
      "lat": "22.382269",
      "long": "113.963833"
    },
    {
      "company": "mtrbus",
      "route_id": "mtrbus_506_I",
      "route": "506",
      "dir": "I",
      "from": "兆麟",
      "to": "屯門碼頭",
      "name": "輕鐵蝴蝶站",
      "seq": "10",
      "stop": "506-D100",
      "lat": "22.377547",
      "long": "113.961481"
    },
    {
      "company": "mtrbus",
      "route_id": "mtrbus_506_I",
      "route": "506",
      "dir": "I",
      "from": "兆麟",
      "to": "屯門碼頭",
      "name": "蝴蝶邨蝶心樓",
      "seq": "11",
      "stop": "506-D110",
      "lat": "22.374219",
      "long": "113.962106"
    },
    {
      "company": "mtrbus",
      "route_id": "mtrbus_506_I",
      "route": "506",
      "dir": "I",
      "from": "兆麟",
      "to": "屯門碼頭",
      "name": "湖景邨湖碧樓",
      "seq": "12",
      "stop": "506-D120",
      "lat": "22.373549",
      "long": "113.964341"
    },
    {
      "company": "mtrbus",
      "route_id": "mtrbus_506_I",
      "route": "506",
      "dir": "I",
      "from": "兆麟",
      "to": "屯門碼頭",
      "name": "海翠花園",
      "seq": "13",
      "stop": "506-D130",
      "lat": "22.373192",
      "long": "113.966053"
    },
    {
      "company": "mtrbus",
      "route_id": "mtrbus_506_I",
      "route": "506",
      "dir": "I",
      "from": "兆麟",
      "to": "屯門碼頭",
      "name": "屯門碼頭",
      "seq": "14",
      "stop": "506-U011",
      "lat": "22.372986",
      "long": "113.966502"
    }
  ],
  "mtrbus_K51_O": [
    {
      "company": "mtrbus",
      "route_id": "mtrbus_K51_O",
      "route": "K51",
      "dir": "O",
      "from": "富泰",
      "to": "大欖",
      "name": "富泰",
      "seq": "1",
      "stop": "K51-U010",
      "lat": "22.413286",
      "long": "113.982895"
    },
    {
      "company": "mtrbus",
      "route_id": "mtrbus_K51_O",
      "route": "K51",
      "dir": "O",
      "from": "富泰",
      "to": "大欖",
      "name": "聚康山莊",
      "seq": "2",
      "stop": "K51-U020",
      "lat": "22.412025",
      "long": "113.983771"
    },
    {
      "company": "mtrbus",
      "route_id": "mtrbus_K51_O",
      "route": "K51",
      "dir": "O",
      "from": "富泰",
      "to": "大欖",
      "name": "嶺南大學",
      "seq": "3",
      "stop": "K51-U030",
      "lat": "22.41059",
      "long": "113.982387"
    },
    {
      "company": "mtrbus",
      "route_id": "mtrbus_K51_O",
      "route": "K51",
      "dir": "O",
      "from": "富泰",
      "to": "大欖",
      "name": "彩暉花園",
      "seq": "4",
      "stop": "K51-U040",
      "lat": "22.408575",
      "long": "113.980046"
    },
    {
      "company": "mtrbus",
      "route_id": "mtrbus_K51_O",
      "route": "K51",
      "dir": "O",
      "from": "富泰",
      "to": "大欖",
      "name": "港鐵兆康站 (南) (輕鐵兆康站)",
      "seq": "5",
      "stop": "K51-U050",
      "lat": "22.410247",
      "long": "113.978583"
    },
    {
      "company": "mtrbus",
      "route_id": "mtrbus_K51_O",
      "route": "K51",
      "dir": "O",
      "from": "富泰",
      "to": "大欖",
      "name": "井財街",
      "seq": "6",
      "stop": "K51-U060",
      "lat": "22.40205",
      "long": "113.9776"
    },
    {
      "company": "mtrbus",
      "route_id": "mtrbus_K51_O",
      "route": "K51",
      "dir": "O",
      "from": "富泰",
      "to": "大欖",
      "name": "雅都商場",
      "seq": "7",
      "stop": "K51-U070",
      "lat": "22.39834",
      "long": "113.9752"
    },
    {
      "company": "mtrbus",
      "route_id": "mtrbus_K51_O",
      "route": "K51",
      "dir": "O",
      "from": "富泰",
      "to": "大欖",
      "name": "德政圍 (港鐵屯門站)",
      "seq": "8",
      "stop": "K51-U080",
      "lat": "22.39494",
      "long": "113.9746"
    },
    {
      "company": "mtrbus",
      "route_id": "mtrbus_K51_O",
      "route": "K51",
      "dir": "O",
      "from": "富泰",
      "to": "大欖",
      "name": "屯門市中心 (輕鐵市中心站)",
      "seq": "9",
      "stop": "K51-U090",
      "lat": "22.39153",
      "long": "113.9755"
    },
    {
      "company": "mtrbus",
      "route_id": "mtrbus_K51_O",
      "route": "K51",
      "dir": "O",
      "from": "富泰",
      "to": "大欖",
      "name": "屯門官立中學",
      "seq": "10",
      "stop": "K51-U100",
      "lat": "22.3906",
      "long": "113.9788"
    },
    {
      "company": "mtrbus",
      "route_id": "mtrbus_K51_O",
      "route": "K51",
      "dir": "O",
      "from": "富泰",
      "to": "大欖",
      "name": "恒順園",
      "seq": "11",
      "stop": "K51-U110",
      "lat": "22.38771",
      "long": "113.9807"
    },
    {
      "company": "mtrbus",
      "route_id": "mtrbus_K51_O",
      "route": "K51",
      "dir": "O",
      "from": "富泰",
      "to": "大欖",
      "name": "恒豐園",
      "seq": "12",
      "stop": "K51-U120",
      "lat": "22.38519",
      "long": "113.981"
    },
    {
      "company": "mtrbus",
      "route_id": "mtrbus_K51_O",
      "route": "K51",
      "dir": "O",
      "from": "富泰",
      "to": "大欖",
      "name": "三聖邨",
      "seq": "13",
      "stop": "K51-U130",
      "lat": "22.381748",
      "long": "113.978862"
    },
    {
      "company": "mtrbus",
      "route_id": "mtrbus_K51_O",
      "route": "K51",
      "dir": "O",
      "from": "富泰",
      "to": "大欖",
      "name": "青山灣",
      "seq": "14",
      "stop": "K51-U140",
      "lat": "22.378898",
      "long": "113.980751"
    },
    {
      "company": "mtrbus",
      "route_id": "mtrbus_K51_O",
      "route": "K51",
      "dir": "O",
      "from": "富泰",
      "to": "大欖",
      "name": "海景花園",
      "seq": "15",
      "stop": "K51-U150",
      "lat": "22.377938",
      "long": "113.983475"
    },
    {
      "company": "mtrbus",
      "route_id": "mtrbus_K51_O",
      "route": "K51",
      "dir": "O",
      "from": "富泰",
      "to": "大欖",
      "name": "咖啡灣",
      "seq": "16",
      "stop": "K51-U160",
      "lat": "22.374926",
      "long": "113.986745"
    },
    {
      "company": "mtrbus",
      "route_id": "mtrbus_K51_O",
      "route": "K51",
      "dir": "O",
      "from": "富泰",
      "to": "大欖",
      "name": "黃金泳灘",
      "seq": "17",
      "stop": "K51-U170",
      "lat": "22.373784",
      "long": "113.990756"
    },
    {
      "company": "mtrbus",
      "route_id": "mtrbus_K51_O",
      "route": "K51",
      "dir": "O",
      "from": "富泰",
      "to": "大欖",
      "name": "香港黃金海岸",
      "seq": "18",
      "stop": "K51-U180",
      "lat": "22.372025",
      "long": "113.993574"
    },
    {
      "company": "mtrbus",
      "route_id": "mtrbus_K51_O",
      "route": "K51",
      "dir": "O",
      "from": "富泰",
      "to": "大欖",
      "name": "嘉禾里村",
      "seq": "19",
      "stop": "K51-U190",
      "lat": "22.36945",
      "long": "113.9954"
    },
    {
      "company": "mtrbus",
      "route_id": "mtrbus_K51_O",
      "route": "K51",
      "dir": "O",
      "from": "富泰",
      "to": "大欖",
      "name": "小秀村",
      "seq": "20",
      "stop": "K51-U200",
      "lat": "22.36817",
      "long": "113.9991"
    },
    {
      "company": "mtrbus",
      "route_id": "mtrbus_K51_O",
      "route": "K51",
      "dir": "O",
      "from": "富泰",
      "to": "大欖",
      "name": "愛琴灣",
      "seq": "21",
      "stop": "K51-U210",
      "lat": "22.36627",
      "long": "114.0033"
    },
    {
      "company": "mtrbus",
      "route_id": "mtrbus_K51_O",
      "route": "K51",
      "dir": "O",
      "from": "富泰",
      "to": "大欖",
      "name": "小欖新村",
      "seq": "22",
      "stop": "K51-U220",
      "lat": "22.36638",
      "long": "114.0063"
    },
    {
      "company": "mtrbus",
      "route_id": "mtrbus_K51_O",
      "route": "K51",
      "dir": "O",
      "from": "富泰",
      "to": "大欖",
      "name": "小欖村",
      "seq": "23",
      "stop": "K51-U230",
      "lat": "22.3663",
      "long": "114.0113"
    },
    {
      "company": "mtrbus",
      "route_id": "mtrbus_K51_O",
      "route": "K51",
      "dir": "O",
      "from": "富泰",
      "to": "大欖",
      "name": "小欖澄麗路",
      "seq": "24",
      "stop": "K51-U240",
      "lat": "22.36497",
      "long": "114.0133"
    },
    {
      "company": "mtrbus",
      "route_id": "mtrbus_K51_O",
      "route": "K51",
      "dir": "O",
      "from": "富泰",
      "to": "大欖",
      "name": "大欖",
      "seq": "25",
      "stop": "K51-U250",
      "lat": "22.362495",
      "long": "114.019113"
    }
  ],
  "mtrbus_K51_I": [
    {
      "company": "mtrbus",
      "route_id": "mtrbus_K51_I",
      "route": "K51",
      "dir": "I",
      "from": "大欖",
      "to": "富泰",
      "name": "大欖",
      "seq": "1",
      "stop": "K51-D010",
      "lat": "22.362495",
      "long": "114.019113"
    },
    {
      "company": "mtrbus",
      "route_id": "mtrbus_K51_I",
      "route": "K51",
      "dir": "I",
      "from": "大欖",
      "to": "富泰",
      "name": "小欖",
      "seq": "2",
      "stop": "K51-D020",
      "lat": "22.364165",
      "long": "114.014994"
    },
    {
      "company": "mtrbus",
      "route_id": "mtrbus_K51_I",
      "route": "K51",
      "dir": "I",
      "from": "大欖",
      "to": "富泰",
      "name": "小欖澄麗路",
      "seq": "3",
      "stop": "K51-D030",
      "lat": "22.365696",
      "long": "114.01244"
    },
    {
      "company": "mtrbus",
      "route_id": "mtrbus_K51_I",
      "route": "K51",
      "dir": "I",
      "from": "大欖",
      "to": "富泰",
      "name": "小欖村",
      "seq": "4",
      "stop": "K51-D040",
      "lat": "22.366338",
      "long": "114.00949"
    },
    {
      "company": "mtrbus",
      "route_id": "mtrbus_K51_I",
      "route": "K51",
      "dir": "I",
      "from": "大欖",
      "to": "富泰",
      "name": "小欖新村",
      "seq": "5",
      "stop": "K51-D050",
      "lat": "22.366102",
      "long": "114.005524"
    },
    {
      "company": "mtrbus",
      "route_id": "mtrbus_K51_I",
      "route": "K51",
      "dir": "I",
      "from": "大欖",
      "to": "富泰",
      "name": "愛琴灣",
      "seq": "6",
      "stop": "K51-D060",
      "lat": "22.366573",
      "long": "114.001616"
    },
    {
      "company": "mtrbus",
      "route_id": "mtrbus_K51_I",
      "route": "K51",
      "dir": "I",
      "from": "大欖",
      "to": "富泰",
      "name": "小秀上村",
      "seq": "7",
      "stop": "K51-D070",
      "lat": "22.368003",
      "long": "113.999085"
    },
    {
      "company": "mtrbus",
      "route_id": "mtrbus_K51_I",
      "route": "K51",
      "dir": "I",
      "from": "大欖",
      "to": "富泰",
      "name": "龍珠島",
      "seq": "8",
      "stop": "K51-D080",
      "lat": "22.368035",
      "long": "113.996264"
    },
    {
      "company": "mtrbus",
      "route_id": "mtrbus_K51_I",
      "route": "K51",
      "dir": "I",
      "from": "大欖",
      "to": "富泰",
      "name": "香港黃金海岸",
      "seq": "9",
      "stop": "K51-D090",
      "lat": "22.371285",
      "long": "113.993882"
    },
    {
      "company": "mtrbus",
      "route_id": "mtrbus_K51_I",
      "route": "K51",
      "dir": "I",
      "from": "大欖",
      "to": "富泰",
      "name": "黃金泳灘",
      "seq": "10",
      "stop": "K51-D100",
      "lat": "22.373628",
      "long": "113.991213"
    },
    {
      "company": "mtrbus",
      "route_id": "mtrbus_K51_I",
      "route": "K51",
      "dir": "I",
      "from": "大欖",
      "to": "富泰",
      "name": "咖啡灣",
      "seq": "11",
      "stop": "K51-D110",
      "lat": "22.3759",
      "long": "113.985635"
    },
    {
      "company": "mtrbus",
      "route_id": "mtrbus_K51_I",
      "route": "K51",
      "dir": "I",
      "from": "大欖",
      "to": "富泰",
      "name": "碧翠花園",
      "seq": "12",
      "stop": "K51-D120",
      "lat": "22.377927",
      "long": "113.983242"
    },
    {
      "company": "mtrbus",
      "route_id": "mtrbus_K51_I",
      "route": "K51",
      "dir": "I",
      "from": "大欖",
      "to": "富泰",
      "name": "青山灣碼頭",
      "seq": "13",
      "stop": "K51-D130",
      "lat": "22.378957",
      "long": "113.980602"
    },
    {
      "company": "mtrbus",
      "route_id": "mtrbus_K51_I",
      "route": "K51",
      "dir": "I",
      "from": "大欖",
      "to": "富泰",
      "name": "三聖邨",
      "seq": "14",
      "stop": "K51-D140",
      "lat": "22.381214",
      "long": "113.979092"
    },
    {
      "company": "mtrbus",
      "route_id": "mtrbus_K51_I",
      "route": "K51",
      "dir": "I",
      "from": "大欖",
      "to": "富泰",
      "name": "恆福花園 (輕鐵三聖站)",
      "seq": "15",
      "stop": "K51-D150",
      "lat": "22.382064",
      "long": "113.977151"
    },
    {
      "company": "mtrbus",
      "route_id": "mtrbus_K51_I",
      "route": "K51",
      "dir": "I",
      "from": "大欖",
      "to": "富泰",
      "name": "胡陳金枝中學",
      "seq": "16",
      "stop": "K51-D160",
      "lat": "22.383774",
      "long": "113.97939"
    },
    {
      "company": "mtrbus",
      "route_id": "mtrbus_K51_I",
      "route": "K51",
      "dir": "I",
      "from": "大欖",
      "to": "富泰",
      "name": "青善遊樂場",
      "seq": "17",
      "stop": "K51-D170",
      "lat": "22.384602",
      "long": "113.980638"
    },
    {
      "company": "mtrbus",
      "route_id": "mtrbus_K51_I",
      "route": "K51",
      "dir": "I",
      "from": "大欖",
      "to": "富泰",
      "name": "置樂花園",
      "seq": "18",
      "stop": "K51-D180",
      "lat": "22.387355",
      "long": "113.98069"
    },
    {
      "company": "mtrbus",
      "route_id": "mtrbus_K51_I",
      "route": "K51",
      "dir": "I",
      "from": "大欖",
      "to": "富泰",
      "name": "屯門官立中學",
      "seq": "19",
      "stop": "K51-D190",
      "lat": "22.390433",
      "long": "113.978805"
    },
    {
      "company": "mtrbus",
      "route_id": "mtrbus_K51_I",
      "route": "K51",
      "dir": "I",
      "from": "大欖",
      "to": "富泰",
      "name": "輕鐵市中心站",
      "seq": "20",
      "stop": "K51-D200",
      "lat": "22.392116",
      "long": "113.975082"
    },
    {
      "company": "mtrbus",
      "route_id": "mtrbus_K51_I",
      "route": "K51",
      "dir": "I",
      "from": "大欖",
      "to": "富泰",
      "name": "港鐵屯門站 (輕鐵屯門站)",
      "seq": "21",
      "stop": "K51-D210",
      "lat": "22.395021",
      "long": "113.974444"
    },
    {
      "company": "mtrbus",
      "route_id": "mtrbus_K51_I",
      "route": "K51",
      "dir": "I",
      "from": "大欖",
      "to": "富泰",
      "name": "聖公會聖西門呂明才中學",
      "seq": "22",
      "stop": "K51-D220",
      "lat": "22.397311",
      "long": "113.974853"
    },
    {
      "company": "mtrbus",
      "route_id": "mtrbus_K51_I",
      "route": "K51",
      "dir": "I",
      "from": "大欖",
      "to": "富泰",
      "name": "景峰花園",
      "seq": "23",
      "stop": "K51-D230",
      "lat": "22.40334",
      "long": "113.979247"
    },
    {
      "company": "mtrbus",
      "route_id": "mtrbus_K51_I",
      "route": "K51",
      "dir": "I",
      "from": "大欖",
      "to": "富泰",
      "name": "輕鐵鳳地站",
      "seq": "24",
      "stop": "K51-D240",
      "lat": "22.407254",
      "long": "113.978641"
    },
    {
      "company": "mtrbus",
      "route_id": "mtrbus_K51_I",
      "route": "K51",
      "dir": "I",
      "from": "大欖",
      "to": "富泰",
      "name": "港鐵兆康站 (南) (輕鐵兆康站)",
      "seq": "25",
      "stop": "K51-D250",
      "lat": "22.410378",
      "long": "113.978607"
    },
    {
      "company": "mtrbus",
      "route_id": "mtrbus_K51_I",
      "route": "K51",
      "dir": "I",
      "from": "大欖",
      "to": "富泰",
      "name": "彩暉花園",
      "seq": "26",
      "stop": "K51-D260",
      "lat": "22.408779",
      "long": "113.980397"
    },
    {
      "company": "mtrbus",
      "route_id": "mtrbus_K51_I",
      "route": "K51",
      "dir": "I",
      "from": "大欖",
      "to": "富泰",
      "name": "嶺南大學",
      "seq": "27",
      "stop": "K51-D270",
      "lat": "22.410694",
      "long": "113.982212"
    },
    {
      "company": "mtrbus",
      "route_id": "mtrbus_K51_I",
      "route": "K51",
      "dir": "I",
      "from": "大欖",
      "to": "富泰",
      "name": "倚嶺南庭",
      "seq": "28",
      "stop": "K51-D280",
      "lat": "22.411927",
      "long": "113.983128"
    },
    {
      "company": "mtrbus",
      "route_id": "mtrbus_K51_I",
      "route": "K51",
      "dir": "I",
      "from": "大欖",
      "to": "富泰",
      "name": "富泰",
      "seq": "29",
      "stop": "K51-D290",
      "lat": "22.413286",
      "long": "113.982895"
    }
  ],
  "mtrbus_K51A_O": [
    {
      "company": "mtrbus",
      "route_id": "mtrbus_K51A_O",
      "route": "K51A",
      "dir": "O",
      "from": "富泰",
      "to": "掃管笏村",
      "name": "富泰",
      "seq": "1",
      "stop": "K51A-U010",
      "lat": "22.413286",
      "long": "113.982895"
    },
    {
      "company": "mtrbus",
      "route_id": "mtrbus_K51A_O",
      "route": "K51A",
      "dir": "O",
      "from": "富泰",
      "to": "掃管笏村",
      "name": "聚康山莊",
      "seq": "2",
      "stop": "K51A-U020",
      "lat": "22.412025",
      "long": "113.983771"
    },
    {
      "company": "mtrbus",
      "route_id": "mtrbus_K51A_O",
      "route": "K51A",
      "dir": "O",
      "from": "富泰",
      "to": "掃管笏村",
      "name": "嶺南大學",
      "seq": "3",
      "stop": "K51A-U030",
      "lat": "22.41059",
      "long": "113.982387"
    },
    {
      "company": "mtrbus",
      "route_id": "mtrbus_K51A_O",
      "route": "K51A",
      "dir": "O",
      "from": "富泰",
      "to": "掃管笏村",
      "name": "彩暉花園",
      "seq": "4",
      "stop": "K51A-U040",
      "lat": "22.408575",
      "long": "113.980046"
    },
    {
      "company": "mtrbus",
      "route_id": "mtrbus_K51A_O",
      "route": "K51A",
      "dir": "O",
      "from": "富泰",
      "to": "掃管笏村",
      "name": "港鐵兆康站 (南) (輕鐵兆康站)",
      "seq": "5",
      "stop": "K51A-U050",
      "lat": "22.410247",
      "long": "113.978583"
    },
    {
      "company": "mtrbus",
      "route_id": "mtrbus_K51A_O",
      "route": "K51A",
      "dir": "O",
      "from": "富泰",
      "to": "掃管笏村",
      "name": "井財街",
      "seq": "6",
      "stop": "K51A-U060",
      "lat": "22.40205",
      "long": "113.9776"
    },
    {
      "company": "mtrbus",
      "route_id": "mtrbus_K51A_O",
      "route": "K51A",
      "dir": "O",
      "from": "富泰",
      "to": "掃管笏村",
      "name": "雅都商場",
      "seq": "7",
      "stop": "K51A-U070",
      "lat": "22.39834",
      "long": "113.9752"
    },
    {
      "company": "mtrbus",
      "route_id": "mtrbus_K51A_O",
      "route": "K51A",
      "dir": "O",
      "from": "富泰",
      "to": "掃管笏村",
      "name": "德政圍 (港鐵屯門站)",
      "seq": "8",
      "stop": "K51A-U080",
      "lat": "22.39494",
      "long": "113.9746"
    },
    {
      "company": "mtrbus",
      "route_id": "mtrbus_K51A_O",
      "route": "K51A",
      "dir": "O",
      "from": "富泰",
      "to": "掃管笏村",
      "name": "屯門市中心 (輕鐵市中心站)",
      "seq": "9",
      "stop": "K51A-U090",
      "lat": "22.39153",
      "long": "113.9755"
    },
    {
      "company": "mtrbus",
      "route_id": "mtrbus_K51A_O",
      "route": "K51A",
      "dir": "O",
      "from": "富泰",
      "to": "掃管笏村",
      "name": "屯門官立中學",
      "seq": "10",
      "stop": "K51A-U100",
      "lat": "22.3906",
      "long": "113.9788"
    },
    {
      "company": "mtrbus",
      "route_id": "mtrbus_K51A_O",
      "route": "K51A",
      "dir": "O",
      "from": "富泰",
      "to": "掃管笏村",
      "name": "恒順園",
      "seq": "11",
      "stop": "K51A-U110",
      "lat": "22.38771",
      "long": "113.9807"
    },
    {
      "company": "mtrbus",
      "route_id": "mtrbus_K51A_O",
      "route": "K51A",
      "dir": "O",
      "from": "富泰",
      "to": "掃管笏村",
      "name": "恒豐園",
      "seq": "12",
      "stop": "K51A-U120",
      "lat": "22.38519",
      "long": "113.981"
    },
    {
      "company": "mtrbus",
      "route_id": "mtrbus_K51A_O",
      "route": "K51A",
      "dir": "O",
      "from": "富泰",
      "to": "掃管笏村",
      "name": "三聖邨",
      "seq": "13",
      "stop": "K51A-U130",
      "lat": "22.381748",
      "long": "113.978862"
    },
    {
      "company": "mtrbus",
      "route_id": "mtrbus_K51A_O",
      "route": "K51A",
      "dir": "O",
      "from": "富泰",
      "to": "掃管笏村",
      "name": "青山灣",
      "seq": "14",
      "stop": "K51A-U140",
      "lat": "22.378898",
      "long": "113.980751"
    },
    {
      "company": "mtrbus",
      "route_id": "mtrbus_K51A_O",
      "route": "K51A",
      "dir": "O",
      "from": "富泰",
      "to": "掃管笏村",
      "name": "海景花園",
      "seq": "15",
      "stop": "K51A-U150",
      "lat": "22.377938",
      "long": "113.983475"
    },
    {
      "company": "mtrbus",
      "route_id": "mtrbus_K51A_O",
      "route": "K51A",
      "dir": "O",
      "from": "富泰",
      "to": "掃管笏村",
      "name": "咖啡灣",
      "seq": "16",
      "stop": "K51A-U160",
      "lat": "22.374926",
      "long": "113.986745"
    },
    {
      "company": "mtrbus",
      "route_id": "mtrbus_K51A_O",
      "route": "K51A",
      "dir": "O",
      "from": "富泰",
      "to": "掃管笏村",
      "name": "黃金泳灘",
      "seq": "17",
      "stop": "K51A-U170",
      "lat": "22.373784",
      "long": "113.990756"
    },
    {
      "company": "mtrbus",
      "route_id": "mtrbus_K51A_O",
      "route": "K51A",
      "dir": "O",
      "from": "富泰",
      "to": "掃管笏村",
      "name": "香港黃金海岸",
      "seq": "18",
      "stop": "K51A-U180",
      "lat": "22.372025",
      "long": "113.993574"
    },
    {
      "company": "mtrbus",
      "route_id": "mtrbus_K51A_O",
      "route": "K51A",
      "dir": "O",
      "from": "富泰",
      "to": "掃管笏村",
      "name": "愛琴海岸",
      "seq": "19",
      "stop": "K51A-U190",
      "lat": "22.371605",
      "long": "113.9954"
    },
    {
      "company": "mtrbus",
      "route_id": "mtrbus_K51A_O",
      "route": "K51A",
      "dir": "O",
      "from": "富泰",
      "to": "掃管笏村",
      "name": "掃管笏變電站",
      "seq": "20",
      "stop": "K51A-U200",
      "lat": "22.373878",
      "long": "113.996144"
    },
    {
      "company": "mtrbus",
      "route_id": "mtrbus_K51A_O",
      "route": "K51A",
      "dir": "O",
      "from": "富泰",
      "to": "掃管笏村",
      "name": "掃管笏村",
      "seq": "21",
      "stop": "K51A-U210",
      "lat": "22.375743",
      "long": "113.999829"
    },
    {
      "company": "mtrbus",
      "route_id": "mtrbus_K51A_O",
      "route": "K51A",
      "dir": "O",
      "from": "富泰",
      "to": "掃管笏村",
      "name": "掃管笏 (鄭任安夫人千禧小學)",
      "seq": "22",
      "stop": "K51A-U220",
      "lat": "22.372023",
      "long": "114.003593"
    },
    {
      "company": "mtrbus",
      "route_id": "mtrbus_K51A_O",
      "route": "K51A",
      "dir": "O",
      "from": "富泰",
      "to": "掃管笏村",
      "name": "掃管笏路",
      "seq": "23",
      "stop": "K51A-U230",
      "lat": "22.374216",
      "long": "114.002295"
    },
    {
      "company": "mtrbus",
      "route_id": "mtrbus_K51A_O",
      "route": "K51A",
      "dir": "O",
      "from": "富泰",
      "to": "掃管笏村",
      "name": "管翠路18號",
      "seq": "24",
      "stop": "K51A-U240",
      "lat": "22.373866",
      "long": "114.001024"
    },
    {
      "company": "mtrbus",
      "route_id": "mtrbus_K51A_O",
      "route": "K51A",
      "dir": "O",
      "from": "富泰",
      "to": "掃管笏村",
      "name": "掃管笏村",
      "seq": "25",
      "stop": "K51A-U250",
      "lat": "22.375743",
      "long": "113.999829"
    }
  ],
  "mtrbus_K51A_I": [
    {
      "company": "mtrbus",
      "route_id": "mtrbus_K51A_I",
      "route": "K51A",
      "dir": "I",
      "from": "掃管笏村",
      "to": "富泰",
      "name": "掃管笏村",
      "seq": "1",
      "stop": "K51A-D010",
      "lat": "22.375743",
      "long": "113.999829"
    },
    {
      "company": "mtrbus",
      "route_id": "mtrbus_K51A_I",
      "route": "K51A",
      "dir": "I",
      "from": "掃管笏村",
      "to": "富泰",
      "name": "掃管笏 (鄭任安夫人千禧小學)",
      "seq": "2",
      "stop": "K51A-D020",
      "lat": "22.372023",
      "long": "114.003593"
    },
    {
      "company": "mtrbus",
      "route_id": "mtrbus_K51A_I",
      "route": "K51A",
      "dir": "I",
      "from": "掃管笏村",
      "to": "富泰",
      "name": "掃管笏路",
      "seq": "3",
      "stop": "K51A-D030",
      "lat": "22.374216",
      "long": "114.002295"
    },
    {
      "company": "mtrbus",
      "route_id": "mtrbus_K51A_I",
      "route": "K51A",
      "dir": "I",
      "from": "掃管笏村",
      "to": "富泰",
      "name": "管翠路18號",
      "seq": "4",
      "stop": "K51A-D040",
      "lat": "22.373866",
      "long": "114.001024"
    },
    {
      "company": "mtrbus",
      "route_id": "mtrbus_K51A_I",
      "route": "K51A",
      "dir": "I",
      "from": "掃管笏村",
      "to": "富泰",
      "name": "管翠路",
      "seq": "5",
      "stop": "K51A-D050",
      "lat": "22.375123",
      "long": "113.997707"
    },
    {
      "company": "mtrbus",
      "route_id": "mtrbus_K51A_I",
      "route": "K51A",
      "dir": "I",
      "from": "掃管笏村",
      "to": "富泰",
      "name": "愛琴海岸",
      "seq": "6",
      "stop": "K51A-D060",
      "lat": "22.371473",
      "long": "113.995381"
    },
    {
      "company": "mtrbus",
      "route_id": "mtrbus_K51A_I",
      "route": "K51A",
      "dir": "I",
      "from": "掃管笏村",
      "to": "富泰",
      "name": "香港黃金海岸",
      "seq": "7",
      "stop": "K51A-D070",
      "lat": "22.371294",
      "long": "113.993906"
    },
    {
      "company": "mtrbus",
      "route_id": "mtrbus_K51A_I",
      "route": "K51A",
      "dir": "I",
      "from": "掃管笏村",
      "to": "富泰",
      "name": "黃金泳灘",
      "seq": "8",
      "stop": "K51A-D080",
      "lat": "22.373628",
      "long": "113.991213"
    },
    {
      "company": "mtrbus",
      "route_id": "mtrbus_K51A_I",
      "route": "K51A",
      "dir": "I",
      "from": "掃管笏村",
      "to": "富泰",
      "name": "咖啡灣",
      "seq": "9",
      "stop": "K51A-D090",
      "lat": "22.3759",
      "long": "113.985635"
    },
    {
      "company": "mtrbus",
      "route_id": "mtrbus_K51A_I",
      "route": "K51A",
      "dir": "I",
      "from": "掃管笏村",
      "to": "富泰",
      "name": "碧翠花園",
      "seq": "10",
      "stop": "K51A-D100",
      "lat": "22.377927",
      "long": "113.983242"
    },
    {
      "company": "mtrbus",
      "route_id": "mtrbus_K51A_I",
      "route": "K51A",
      "dir": "I",
      "from": "掃管笏村",
      "to": "富泰",
      "name": "青山灣碼頭",
      "seq": "11",
      "stop": "K51A-D110",
      "lat": "22.378957",
      "long": "113.980602"
    },
    {
      "company": "mtrbus",
      "route_id": "mtrbus_K51A_I",
      "route": "K51A",
      "dir": "I",
      "from": "掃管笏村",
      "to": "富泰",
      "name": "三聖邨",
      "seq": "12",
      "stop": "K51A-D120",
      "lat": "22.381214",
      "long": "113.979092"
    },
    {
      "company": "mtrbus",
      "route_id": "mtrbus_K51A_I",
      "route": "K51A",
      "dir": "I",
      "from": "掃管笏村",
      "to": "富泰",
      "name": "胡陳金枝中學",
      "seq": "14",
      "stop": "K51A-D140",
      "lat": "22.383774",
      "long": "113.97939"
    },
    {
      "company": "mtrbus",
      "route_id": "mtrbus_K51A_I",
      "route": "K51A",
      "dir": "I",
      "from": "掃管笏村",
      "to": "富泰",
      "name": "青善遊樂場",
      "seq": "15",
      "stop": "K51A-D150",
      "lat": "22.384602",
      "long": "113.980638"
    },
    {
      "company": "mtrbus",
      "route_id": "mtrbus_K51A_I",
      "route": "K51A",
      "dir": "I",
      "from": "掃管笏村",
      "to": "富泰",
      "name": "置樂花園",
      "seq": "16",
      "stop": "K51A-D160",
      "lat": "22.387355",
      "long": "113.98069"
    },
    {
      "company": "mtrbus",
      "route_id": "mtrbus_K51A_I",
      "route": "K51A",
      "dir": "I",
      "from": "掃管笏村",
      "to": "富泰",
      "name": "屯門官立中學",
      "seq": "17",
      "stop": "K51A-D170",
      "lat": "22.390433",
      "long": "113.978805"
    },
    {
      "company": "mtrbus",
      "route_id": "mtrbus_K51A_I",
      "route": "K51A",
      "dir": "I",
      "from": "掃管笏村",
      "to": "富泰",
      "name": "輕鐵市中心站",
      "seq": "18",
      "stop": "K51A-D180",
      "lat": "22.392116",
      "long": "113.975082"
    },
    {
      "company": "mtrbus",
      "route_id": "mtrbus_K51A_I",
      "route": "K51A",
      "dir": "I",
      "from": "掃管笏村",
      "to": "富泰",
      "name": "港鐵屯門站 (輕鐵屯門站)",
      "seq": "19",
      "stop": "K51A-D190",
      "lat": "22.395021",
      "long": "113.974444"
    },
    {
      "company": "mtrbus",
      "route_id": "mtrbus_K51A_I",
      "route": "K51A",
      "dir": "I",
      "from": "掃管笏村",
      "to": "富泰",
      "name": "聖公會聖西門呂明才中學",
      "seq": "20",
      "stop": "K51A-D200",
      "lat": "22.397311",
      "long": "113.974853"
    },
    {
      "company": "mtrbus",
      "route_id": "mtrbus_K51A_I",
      "route": "K51A",
      "dir": "I",
      "from": "掃管笏村",
      "to": "富泰",
      "name": "景峰花園",
      "seq": "21",
      "stop": "K51A-D210",
      "lat": "22.40334",
      "long": "113.979247"
    },
    {
      "company": "mtrbus",
      "route_id": "mtrbus_K51A_I",
      "route": "K51A",
      "dir": "I",
      "from": "掃管笏村",
      "to": "富泰",
      "name": "輕鐵鳳地站",
      "seq": "22",
      "stop": "K51A-D220",
      "lat": "22.407254",
      "long": "113.978641"
    },
    {
      "company": "mtrbus",
      "route_id": "mtrbus_K51A_I",
      "route": "K51A",
      "dir": "I",
      "from": "掃管笏村",
      "to": "富泰",
      "name": "港鐵兆康站 (南) (輕鐵兆康站)",
      "seq": "23",
      "stop": "K51A-D230",
      "lat": "22.410378",
      "long": "113.978607"
    },
    {
      "company": "mtrbus",
      "route_id": "mtrbus_K51A_I",
      "route": "K51A",
      "dir": "I",
      "from": "掃管笏村",
      "to": "富泰",
      "name": "彩暉花園",
      "seq": "24",
      "stop": "K51A-D240",
      "lat": "22.408779",
      "long": "113.980397"
    },
    {
      "company": "mtrbus",
      "route_id": "mtrbus_K51A_I",
      "route": "K51A",
      "dir": "I",
      "from": "掃管笏村",
      "to": "富泰",
      "name": "嶺南大學",
      "seq": "25",
      "stop": "K51A-D250",
      "lat": "22.410694",
      "long": "113.982212"
    },
    {
      "company": "mtrbus",
      "route_id": "mtrbus_K51A_I",
      "route": "K51A",
      "dir": "I",
      "from": "掃管笏村",
      "to": "富泰",
      "name": "倚嶺南庭",
      "seq": "26",
      "stop": "K51A-D260",
      "lat": "22.411927",
      "long": "113.983128"
    },
    {
      "company": "mtrbus",
      "route_id": "mtrbus_K51A_I",
      "route": "K51A",
      "dir": "I",
      "from": "掃管笏村",
      "to": "富泰",
      "name": "富泰",
      "seq": "27",
      "stop": "K51A-D270",
      "lat": "22.413286",
      "long": "113.982895"
    }
  ],
  "mtrbus_K52_O": [
    {
      "company": "mtrbus",
      "route_id": "mtrbus_K52_O",
      "route": "K52",
      "dir": "O",
      "from": "悅湖山莊",
      "to": "龍鼓灘",
      "name": "悅湖山莊",
      "seq": "1",
      "stop": "K52-nU010",
      "lat": "22.375261",
      "long": "113.968532"
    },
    {
      "company": "mtrbus",
      "route_id": "mtrbus_K52_O",
      "route": "K52",
      "dir": "O",
      "from": "悅湖山莊",
      "to": "龍鼓灘",
      "name": "邁亞美海灣",
      "seq": "2",
      "stop": "K52-nU020",
      "lat": "22.372808",
      "long": "113.970095"
    },
    {
      "company": "mtrbus",
      "route_id": "mtrbus_K52_O",
      "route": "K52",
      "dir": "O",
      "from": "悅湖山莊",
      "to": "龍鼓灘",
      "name": "屯門碼頭",
      "seq": "3",
      "stop": "K52-nU030",
      "lat": "22.372801",
      "long": "113.967391"
    },
    {
      "company": "mtrbus",
      "route_id": "mtrbus_K52_O",
      "route": "K52",
      "dir": "O",
      "from": "悅湖山莊",
      "to": "龍鼓灘",
      "name": "湖景邨湖畔樓",
      "seq": "4",
      "stop": "K52-nU040",
      "lat": "22.374496",
      "long": "113.965605"
    },
    {
      "company": "mtrbus",
      "route_id": "mtrbus_K52_O",
      "route": "K52",
      "dir": "O",
      "from": "悅湖山莊",
      "to": "龍鼓灘",
      "name": "湖景邨湖翠樓",
      "seq": "5",
      "stop": "K52-nU050",
      "lat": "22.376739",
      "long": "113.966289"
    },
    {
      "company": "mtrbus",
      "route_id": "mtrbus_K52_O",
      "route": "K52",
      "dir": "O",
      "from": "悅湖山莊",
      "to": "龍鼓灘",
      "name": "屯門中央廣場",
      "seq": "6",
      "stop": "K52-nU060",
      "lat": "22.381216",
      "long": "113.972293"
    },
    {
      "company": "mtrbus",
      "route_id": "mtrbus_K52_O",
      "route": "K52",
      "dir": "O",
      "from": "悅湖山莊",
      "to": "龍鼓灘",
      "name": "輕鐵三聖站",
      "seq": "7",
      "stop": "K52-nU070",
      "lat": "22.382943",
      "long": "113.976283"
    },
    {
      "company": "mtrbus",
      "route_id": "mtrbus_K52_O",
      "route": "K52",
      "dir": "O",
      "from": "悅湖山莊",
      "to": "龍鼓灘",
      "name": "胡陳金枝中學",
      "seq": "8",
      "stop": "K52-nU080",
      "lat": "22.383774",
      "long": "113.97939"
    },
    {
      "company": "mtrbus",
      "route_id": "mtrbus_K52_O",
      "route": "K52",
      "dir": "O",
      "from": "悅湖山莊",
      "to": "龍鼓灘",
      "name": "青善遊樂場",
      "seq": "9",
      "stop": "K52-nU090",
      "lat": "22.38457",
      "long": "113.98065"
    },
    {
      "company": "mtrbus",
      "route_id": "mtrbus_K52_O",
      "route": "K52",
      "dir": "O",
      "from": "悅湖山莊",
      "to": "龍鼓灘",
      "name": "置樂花園",
      "seq": "10",
      "stop": "K52-nU100",
      "lat": "22.387385",
      "long": "113.980666"
    },
    {
      "company": "mtrbus",
      "route_id": "mtrbus_K52_O",
      "route": "K52",
      "dir": "O",
      "from": "悅湖山莊",
      "to": "龍鼓灘",
      "name": "屯門官立中學",
      "seq": "11",
      "stop": "K52-nU110",
      "lat": "22.390462",
      "long": "113.97885"
    },
    {
      "company": "mtrbus",
      "route_id": "mtrbus_K52_O",
      "route": "K52",
      "dir": "O",
      "from": "悅湖山莊",
      "to": "龍鼓灘",
      "name": "輕鐵市中心站",
      "seq": "12",
      "stop": "K52-nU120",
      "lat": "22.392116",
      "long": "113.975082"
    },
    {
      "company": "mtrbus",
      "route_id": "mtrbus_K52_O",
      "route": "K52",
      "dir": "O",
      "from": "悅湖山莊",
      "to": "龍鼓灘",
      "name": "輕鐵屯門站 (港鐵屯門站)",
      "seq": "13",
      "stop": "K52-nU140",
      "lat": "22.393937",
      "long": "113.973896"
    },
    {
      "company": "mtrbus",
      "route_id": "mtrbus_K52_O",
      "route": "K52",
      "dir": "O",
      "from": "悅湖山莊",
      "to": "龍鼓灘",
      "name": "輕鐵建安站",
      "seq": "14",
      "stop": "K52-nU150",
      "lat": "22.394687",
      "long": "113.970746"
    },
    {
      "company": "mtrbus",
      "route_id": "mtrbus_K52_O",
      "route": "K52",
      "dir": "O",
      "from": "悅湖山莊",
      "to": "龍鼓灘",
      "name": "輕鐵青雲站",
      "seq": "15",
      "stop": "K52-nU160",
      "lat": "22.393382",
      "long": "113.967707"
    },
    {
      "company": "mtrbus",
      "route_id": "mtrbus_K52_O",
      "route": "K52",
      "dir": "O",
      "from": "悅湖山莊",
      "to": "龍鼓灘",
      "name": "聖彼得堂",
      "seq": "16",
      "stop": "K52-nU170",
      "lat": "22.391722",
      "long": "113.967726"
    },
    {
      "company": "mtrbus",
      "route_id": "mtrbus_K52_O",
      "route": "K52",
      "dir": "O",
      "from": "悅湖山莊",
      "to": "龍鼓灘",
      "name": "富健花園",
      "seq": "17",
      "stop": "K52-nU180",
      "lat": "22.383618",
      "long": "113.964478"
    },
    {
      "company": "mtrbus",
      "route_id": "mtrbus_K52_O",
      "route": "K52",
      "dir": "O",
      "from": "悅湖山莊",
      "to": "龍鼓灘",
      "name": "新屯門中心",
      "seq": "18",
      "stop": "K52-nU190",
      "lat": "22.382269",
      "long": "113.963833"
    },
    {
      "company": "mtrbus",
      "route_id": "mtrbus_K52_O",
      "route": "K52",
      "dir": "O",
      "from": "悅湖山莊",
      "to": "龍鼓灘",
      "name": "輕鐵蝴蝶站",
      "seq": "19",
      "stop": "K52-nU200",
      "lat": "22.377549",
      "long": "113.961472"
    },
    {
      "company": "mtrbus",
      "route_id": "mtrbus_K52_O",
      "route": "K52",
      "dir": "O",
      "from": "悅湖山莊",
      "to": "龍鼓灘",
      "name": "屯門公眾騎術學校",
      "seq": "20",
      "stop": "K52-nU210",
      "lat": "22.375483",
      "long": "113.959318"
    },
    {
      "company": "mtrbus",
      "route_id": "mtrbus_K52_O",
      "route": "K52",
      "dir": "O",
      "from": "悅湖山莊",
      "to": "龍鼓灘",
      "name": "蝴蝶灣公園",
      "seq": "21",
      "stop": "K52-nU220",
      "lat": "22.37319",
      "long": "113.95473"
    },
    {
      "company": "mtrbus",
      "route_id": "mtrbus_K52_O",
      "route": "K52",
      "dir": "O",
      "from": "悅湖山莊",
      "to": "龍鼓灘",
      "name": "望后石",
      "seq": "22",
      "stop": "K52-nU230",
      "lat": "22.368528",
      "long": "113.948898"
    },
    {
      "company": "mtrbus",
      "route_id": "mtrbus_K52_O",
      "route": "K52",
      "dir": "O",
      "from": "悅湖山莊",
      "to": "龍鼓灘",
      "name": "政府車場",
      "seq": "23",
      "stop": "K52-nU240",
      "lat": "22.366727",
      "long": "113.94371"
    },
    {
      "company": "mtrbus",
      "route_id": "mtrbus_K52_O",
      "route": "K52",
      "dir": "O",
      "from": "悅湖山莊",
      "to": "龍鼓灘",
      "name": "內河碼頭",
      "seq": "24",
      "stop": "K52-nU250",
      "lat": "22.36857",
      "long": "113.93822"
    },
    {
      "company": "mtrbus",
      "route_id": "mtrbus_K52_O",
      "route": "K52",
      "dir": "O",
      "from": "悅湖山莊",
      "to": "龍鼓灘",
      "name": "環保園",
      "seq": "25",
      "stop": "K52-nU260",
      "lat": "22.36999",
      "long": "113.93403"
    },
    {
      "company": "mtrbus",
      "route_id": "mtrbus_K52_O",
      "route": "K52",
      "dir": "O",
      "from": "悅湖山莊",
      "to": "龍鼓灘",
      "name": "紹榮鋼鐵",
      "seq": "26",
      "stop": "K52-nU270",
      "lat": "22.36995",
      "long": "113.92874"
    },
    {
      "company": "mtrbus",
      "route_id": "mtrbus_K52_O",
      "route": "K52",
      "dir": "O",
      "from": "悅湖山莊",
      "to": "龍鼓灘",
      "name": "沙埔崗312號",
      "seq": "27",
      "stop": "K52-nU280",
      "lat": "22.386382",
      "long": "113.921122"
    },
    {
      "company": "mtrbus",
      "route_id": "mtrbus_K52_O",
      "route": "K52",
      "dir": "O",
      "from": "悅湖山莊",
      "to": "龍鼓灘",
      "name": "沙埔崗177號",
      "seq": "28",
      "stop": "K52-nU290",
      "lat": "22.388034",
      "long": "113.920786"
    },
    {
      "company": "mtrbus",
      "route_id": "mtrbus_K52_O",
      "route": "K52",
      "dir": "O",
      "from": "悅湖山莊",
      "to": "龍鼓灘",
      "name": "沙埔崗127號",
      "seq": "29",
      "stop": "K52-nU300",
      "lat": "22.389307",
      "long": "113.920224"
    },
    {
      "company": "mtrbus",
      "route_id": "mtrbus_K52_O",
      "route": "K52",
      "dir": "O",
      "from": "悅湖山莊",
      "to": "龍鼓灘",
      "name": "龍鼓灘",
      "seq": "30",
      "stop": "K52-nU310",
      "lat": "22.390617",
      "long": "113.920146"
    }
  ],
  "mtrbus_K52_I": [
    {
      "company": "mtrbus",
      "route_id": "mtrbus_K52_I",
      "route": "K52",
      "dir": "I",
      "from": "龍鼓灘",
      "to": "悅湖山莊",
      "name": "龍鼓灘",
      "seq": "1",
      "stop": "K52-nD010",
      "lat": "22.390617",
      "long": "113.920146"
    },
    {
      "company": "mtrbus",
      "route_id": "mtrbus_K52_I",
      "route": "K52",
      "dir": "I",
      "from": "龍鼓灘",
      "to": "悅湖山莊",
      "name": "沙埔崗127號",
      "seq": "2",
      "stop": "K52-nD020",
      "lat": "22.389103",
      "long": "113.920301"
    },
    {
      "company": "mtrbus",
      "route_id": "mtrbus_K52_I",
      "route": "K52",
      "dir": "I",
      "from": "龍鼓灘",
      "to": "悅湖山莊",
      "name": "沙埔崗177號",
      "seq": "3",
      "stop": "K52-nD030",
      "lat": "22.388058",
      "long": "113.920786"
    },
    {
      "company": "mtrbus",
      "route_id": "mtrbus_K52_I",
      "route": "K52",
      "dir": "I",
      "from": "龍鼓灘",
      "to": "悅湖山莊",
      "name": "沙埔崗288號",
      "seq": "4",
      "stop": "K52-nD040",
      "lat": "22.386623",
      "long": "113.921158"
    },
    {
      "company": "mtrbus",
      "route_id": "mtrbus_K52_I",
      "route": "K52",
      "dir": "I",
      "from": "龍鼓灘",
      "to": "悅湖山莊",
      "name": "沙埔崗351號",
      "seq": "5",
      "stop": "K52-nD050",
      "lat": "22.385511",
      "long": "113.921257"
    },
    {
      "company": "mtrbus",
      "route_id": "mtrbus_K52_I",
      "route": "K52",
      "dir": "I",
      "from": "龍鼓灘",
      "to": "悅湖山莊",
      "name": "中電 A廠",
      "seq": "6",
      "stop": "K52-nD060",
      "lat": "22.38252",
      "long": "113.92102"
    },
    {
      "company": "mtrbus",
      "route_id": "mtrbus_K52_I",
      "route": "K52",
      "dir": "I",
      "from": "龍鼓灘",
      "to": "悅湖山莊",
      "name": "紹榮鋼鐵",
      "seq": "7",
      "stop": "K52-nD070",
      "lat": "22.37012",
      "long": "113.92898"
    },
    {
      "company": "mtrbus",
      "route_id": "mtrbus_K52_I",
      "route": "K52",
      "dir": "I",
      "from": "龍鼓灘",
      "to": "悅湖山莊",
      "name": "環保園",
      "seq": "8",
      "stop": "K52-nD080",
      "lat": "22.37001",
      "long": "113.93439"
    },
    {
      "company": "mtrbus",
      "route_id": "mtrbus_K52_I",
      "route": "K52",
      "dir": "I",
      "from": "龍鼓灘",
      "to": "悅湖山莊",
      "name": "內河碼頭",
      "seq": "9",
      "stop": "K52-nD090",
      "lat": "22.36855",
      "long": "113.938063"
    },
    {
      "company": "mtrbus",
      "route_id": "mtrbus_K52_I",
      "route": "K52",
      "dir": "I",
      "from": "龍鼓灘",
      "to": "悅湖山莊",
      "name": "政府車場",
      "seq": "10",
      "stop": "K52-nD100",
      "lat": "22.366875",
      "long": "113.944272"
    },
    {
      "company": "mtrbus",
      "route_id": "mtrbus_K52_I",
      "route": "K52",
      "dir": "I",
      "from": "龍鼓灘",
      "to": "悅湖山莊",
      "name": "望后石",
      "seq": "11",
      "stop": "K52-nD110",
      "lat": "22.368667",
      "long": "113.948837"
    },
    {
      "company": "mtrbus",
      "route_id": "mtrbus_K52_I",
      "route": "K52",
      "dir": "I",
      "from": "龍鼓灘",
      "to": "悅湖山莊",
      "name": "蝴蝶灣公園",
      "seq": "12",
      "stop": "K52-nD120",
      "lat": "22.3729",
      "long": "113.954631"
    },
    {
      "company": "mtrbus",
      "route_id": "mtrbus_K52_I",
      "route": "K52",
      "dir": "I",
      "from": "龍鼓灘",
      "to": "悅湖山莊",
      "name": "屯門公眾騎術學校",
      "seq": "13",
      "stop": "K52-nD130",
      "lat": "22.375258",
      "long": "113.958583"
    },
    {
      "company": "mtrbus",
      "route_id": "mtrbus_K52_I",
      "route": "K52",
      "dir": "I",
      "from": "龍鼓灘",
      "to": "悅湖山莊",
      "name": "輕鐵蝴蝶站",
      "seq": "14",
      "stop": "K52-nD140",
      "lat": "22.378359",
      "long": "113.961955"
    },
    {
      "company": "mtrbus",
      "route_id": "mtrbus_K52_I",
      "route": "K52",
      "dir": "I",
      "from": "龍鼓灘",
      "to": "悅湖山莊",
      "name": "輕鐵車廠站",
      "seq": "15",
      "stop": "K52-nD150",
      "lat": "22.382203",
      "long": "113.96359"
    },
    {
      "company": "mtrbus",
      "route_id": "mtrbus_K52_I",
      "route": "K52",
      "dir": "I",
      "from": "龍鼓灘",
      "to": "悅湖山莊",
      "name": "輕鐵龍門站",
      "seq": "16",
      "stop": "K52-nD160",
      "lat": "22.385399",
      "long": "113.965222"
    },
    {
      "company": "mtrbus",
      "route_id": "mtrbus_K52_I",
      "route": "K52",
      "dir": "I",
      "from": "龍鼓灘",
      "to": "悅湖山莊",
      "name": "輕鐵青雲站",
      "seq": "17",
      "stop": "K52-nD170",
      "lat": "22.393627",
      "long": "113.96752"
    },
    {
      "company": "mtrbus",
      "route_id": "mtrbus_K52_I",
      "route": "K52",
      "dir": "I",
      "from": "龍鼓灘",
      "to": "悅湖山莊",
      "name": "輕鐵建安站",
      "seq": "18",
      "stop": "K52-nD180",
      "lat": "22.395064",
      "long": "113.969953"
    },
    {
      "company": "mtrbus",
      "route_id": "mtrbus_K52_I",
      "route": "K52",
      "dir": "I",
      "from": "龍鼓灘",
      "to": "悅湖山莊",
      "name": "屯門站",
      "seq": "19",
      "stop": "K52-nD190",
      "lat": "22.394117",
      "long": "113.973992"
    },
    {
      "company": "mtrbus",
      "route_id": "mtrbus_K52_I",
      "route": "K52",
      "dir": "I",
      "from": "龍鼓灘",
      "to": "悅湖山莊",
      "name": "屯門市中心",
      "seq": "20",
      "stop": "K52-nD200",
      "lat": "22.391543",
      "long": "113.975435"
    },
    {
      "company": "mtrbus",
      "route_id": "mtrbus_K52_I",
      "route": "K52",
      "dir": "I",
      "from": "龍鼓灘",
      "to": "悅湖山莊",
      "name": "屯門官立中學",
      "seq": "21",
      "stop": "K52-nD210",
      "lat": "22.3906",
      "long": "113.9788"
    },
    {
      "company": "mtrbus",
      "route_id": "mtrbus_K52_I",
      "route": "K52",
      "dir": "I",
      "from": "龍鼓灘",
      "to": "悅湖山莊",
      "name": "恒順園",
      "seq": "22",
      "stop": "K52-nD220",
      "lat": "22.38771",
      "long": "113.9807"
    },
    {
      "company": "mtrbus",
      "route_id": "mtrbus_K52_I",
      "route": "K52",
      "dir": "I",
      "from": "龍鼓灘",
      "to": "悅湖山莊",
      "name": "恒豐園",
      "seq": "23",
      "stop": "K52-nD230",
      "lat": "22.38519",
      "long": "113.981"
    },
    {
      "company": "mtrbus",
      "route_id": "mtrbus_K52_I",
      "route": "K52",
      "dir": "I",
      "from": "龍鼓灘",
      "to": "悅湖山莊",
      "name": "輕鐵三聖站",
      "seq": "24",
      "stop": "K52-nD240",
      "lat": "22.382769",
      "long": "113.976256"
    },
    {
      "company": "mtrbus",
      "route_id": "mtrbus_K52_I",
      "route": "K52",
      "dir": "I",
      "from": "龍鼓灘",
      "to": "悅湖山莊",
      "name": "屯門中央廣場",
      "seq": "25",
      "stop": "K52-nD250",
      "lat": "22.380902",
      "long": "113.972021"
    },
    {
      "company": "mtrbus",
      "route_id": "mtrbus_K52_I",
      "route": "K52",
      "dir": "I",
      "from": "龍鼓灘",
      "to": "悅湖山莊",
      "name": "湖景邨湖翠樓",
      "seq": "26",
      "stop": "K52-nD260",
      "lat": "22.37652",
      "long": "113.966372"
    },
    {
      "company": "mtrbus",
      "route_id": "mtrbus_K52_I",
      "route": "K52",
      "dir": "I",
      "from": "龍鼓灘",
      "to": "悅湖山莊",
      "name": "兆禧苑",
      "seq": "27",
      "stop": "K52-nD270",
      "lat": "22.374598",
      "long": "113.965833"
    },
    {
      "company": "mtrbus",
      "route_id": "mtrbus_K52_I",
      "route": "K52",
      "dir": "I",
      "from": "龍鼓灘",
      "to": "悅湖山莊",
      "name": "海翠花園",
      "seq": "28",
      "stop": "K52-nD280",
      "lat": "22.373244",
      "long": "113.965958"
    },
    {
      "company": "mtrbus",
      "route_id": "mtrbus_K52_I",
      "route": "K52",
      "dir": "I",
      "from": "龍鼓灘",
      "to": "悅湖山莊",
      "name": "邁亞美海灣",
      "seq": "29",
      "stop": "K52-nD290",
      "lat": "22.372843",
      "long": "113.969696"
    },
    {
      "company": "mtrbus",
      "route_id": "mtrbus_K52_I",
      "route": "K52",
      "dir": "I",
      "from": "龍鼓灘",
      "to": "悅湖山莊",
      "name": "悅湖山莊",
      "seq": "30",
      "stop": "K52-nD300",
      "lat": "22.375257",
      "long": "113.968481"
    }
  ],
  "mtrbus_K52A_O": [
    {
      "company": "mtrbus",
      "route_id": "mtrbus_K52A_O",
      "route": "K52A",
      "dir": "O",
      "from": "屯門站 (輕鐵屯門站)",
      "to": "曾咀 (曾咀靈灰安置所)",
      "name": "屯門站 (輕鐵屯門站)",
      "seq": "1",
      "stop": "K52A-U010",
      "lat": "22.394225",
      "long": "113.973358"
    },
    {
      "company": "mtrbus",
      "route_id": "mtrbus_K52A_O",
      "route": "K52A",
      "dir": "O",
      "from": "屯門站 (輕鐵屯門站)",
      "to": "曾咀 (曾咀靈灰安置所)",
      "name": "輕鐵屯門站 (請留意服務時間)*",
      "seq": "2",
      "stop": "K52A-U015",
      "lat": "22.393937",
      "long": "113.973896"
    },
    {
      "company": "mtrbus",
      "route_id": "mtrbus_K52A_O",
      "route": "K52A",
      "dir": "O",
      "from": "屯門站 (輕鐵屯門站)",
      "to": "曾咀 (曾咀靈灰安置所)",
      "name": "輕鐵建安站",
      "seq": "3",
      "stop": "K52A-U020",
      "lat": "22.394687",
      "long": "113.970746"
    },
    {
      "company": "mtrbus",
      "route_id": "mtrbus_K52A_O",
      "route": "K52A",
      "dir": "O",
      "from": "屯門站 (輕鐵屯門站)",
      "to": "曾咀 (曾咀靈灰安置所)",
      "name": "輕鐵青雲站",
      "seq": "4",
      "stop": "K52A-U030",
      "lat": "22.393382",
      "long": "113.967707"
    },
    {
      "company": "mtrbus",
      "route_id": "mtrbus_K52A_O",
      "route": "K52A",
      "dir": "O",
      "from": "屯門站 (輕鐵屯門站)",
      "to": "曾咀 (曾咀靈灰安置所)",
      "name": "聖彼得堂",
      "seq": "5",
      "stop": "K52A-U040",
      "lat": "22.391722",
      "long": "113.967726"
    },
    {
      "company": "mtrbus",
      "route_id": "mtrbus_K52A_O",
      "route": "K52A",
      "dir": "O",
      "from": "屯門站 (輕鐵屯門站)",
      "to": "曾咀 (曾咀靈灰安置所)",
      "name": "富健花園",
      "seq": "6",
      "stop": "K52A-U050",
      "lat": "22.383618",
      "long": "113.964478"
    },
    {
      "company": "mtrbus",
      "route_id": "mtrbus_K52A_O",
      "route": "K52A",
      "dir": "O",
      "from": "屯門站 (輕鐵屯門站)",
      "to": "曾咀 (曾咀靈灰安置所)",
      "name": "新屯門中心",
      "seq": "7",
      "stop": "K52A-U060",
      "lat": "22.382269",
      "long": "113.963833"
    },
    {
      "company": "mtrbus",
      "route_id": "mtrbus_K52A_O",
      "route": "K52A",
      "dir": "O",
      "from": "屯門站 (輕鐵屯門站)",
      "to": "曾咀 (曾咀靈灰安置所)",
      "name": "輕鐵蝴蝶站",
      "seq": "8",
      "stop": "K52A-U070",
      "lat": "22.377547",
      "long": "113.961481"
    },
    {
      "company": "mtrbus",
      "route_id": "mtrbus_K52A_O",
      "route": "K52A",
      "dir": "O",
      "from": "屯門站 (輕鐵屯門站)",
      "to": "曾咀 (曾咀靈灰安置所)",
      "name": "屯門公眾騎術學校",
      "seq": "9",
      "stop": "K52A-U080",
      "lat": "22.375483",
      "long": "113.959318"
    },
    {
      "company": "mtrbus",
      "route_id": "mtrbus_K52A_O",
      "route": "K52A",
      "dir": "O",
      "from": "屯門站 (輕鐵屯門站)",
      "to": "曾咀 (曾咀靈灰安置所)",
      "name": "蝴蝶灣公園",
      "seq": "10",
      "stop": "K52A-U090",
      "lat": "22.37319",
      "long": "113.95473"
    },
    {
      "company": "mtrbus",
      "route_id": "mtrbus_K52A_O",
      "route": "K52A",
      "dir": "O",
      "from": "屯門站 (輕鐵屯門站)",
      "to": "曾咀 (曾咀靈灰安置所)",
      "name": "望后石",
      "seq": "11",
      "stop": "K52A-U100",
      "lat": "22.368528",
      "long": "113.948898"
    },
    {
      "company": "mtrbus",
      "route_id": "mtrbus_K52A_O",
      "route": "K52A",
      "dir": "O",
      "from": "屯門站 (輕鐵屯門站)",
      "to": "曾咀 (曾咀靈灰安置所)",
      "name": "政府車場",
      "seq": "12",
      "stop": "K52A-U110",
      "lat": "22.366727",
      "long": "113.94371"
    },
    {
      "company": "mtrbus",
      "route_id": "mtrbus_K52A_O",
      "route": "K52A",
      "dir": "O",
      "from": "屯門站 (輕鐵屯門站)",
      "to": "曾咀 (曾咀靈灰安置所)",
      "name": "內河碼頭",
      "seq": "13",
      "stop": "K52A-U120",
      "lat": "22.36857",
      "long": "113.93822"
    },
    {
      "company": "mtrbus",
      "route_id": "mtrbus_K52A_O",
      "route": "K52A",
      "dir": "O",
      "from": "屯門站 (輕鐵屯門站)",
      "to": "曾咀 (曾咀靈灰安置所)",
      "name": "環保園",
      "seq": "14",
      "stop": "K52A-U130",
      "lat": "22.36999",
      "long": "113.93403"
    },
    {
      "company": "mtrbus",
      "route_id": "mtrbus_K52A_O",
      "route": "K52A",
      "dir": "O",
      "from": "屯門站 (輕鐵屯門站)",
      "to": "曾咀 (曾咀靈灰安置所)",
      "name": "紹榮鋼鐵",
      "seq": "15",
      "stop": "K52A-U140",
      "lat": "22.36995",
      "long": "113.92874"
    },
    {
      "company": "mtrbus",
      "route_id": "mtrbus_K52A_O",
      "route": "K52A",
      "dir": "O",
      "from": "屯門站 (輕鐵屯門站)",
      "to": "曾咀 (曾咀靈灰安置所)",
      "name": "沙埔崗312號",
      "seq": "16",
      "stop": "K52A-U150",
      "lat": "22.386382",
      "long": "113.921122"
    },
    {
      "company": "mtrbus",
      "route_id": "mtrbus_K52A_O",
      "route": "K52A",
      "dir": "O",
      "from": "屯門站 (輕鐵屯門站)",
      "to": "曾咀 (曾咀靈灰安置所)",
      "name": "沙埔崗177號",
      "seq": "17",
      "stop": "K52A-U160",
      "lat": "22.388034",
      "long": "113.920786"
    },
    {
      "company": "mtrbus",
      "route_id": "mtrbus_K52A_O",
      "route": "K52A",
      "dir": "O",
      "from": "屯門站 (輕鐵屯門站)",
      "to": "曾咀 (曾咀靈灰安置所)",
      "name": "沙埔崗127號",
      "seq": "18",
      "stop": "K52A-U170",
      "lat": "22.389307",
      "long": "113.920224"
    },
    {
      "company": "mtrbus",
      "route_id": "mtrbus_K52A_O",
      "route": "K52A",
      "dir": "O",
      "from": "屯門站 (輕鐵屯門站)",
      "to": "曾咀 (曾咀靈灰安置所)",
      "name": "曾咀 (曾咀靈灰安置所)",
      "seq": "19",
      "stop": "K52A-U180",
      "lat": "22.420002",
      "long": "113.919644"
    }
  ],
  "mtrbus_K52A_I": [
    {
      "company": "mtrbus",
      "route_id": "mtrbus_K52A_I",
      "route": "K52A",
      "dir": "I",
      "from": "曾咀 (曾咀靈灰安置所)",
      "to": "屯門站 (輕鐵屯門站)",
      "name": "曾咀 (曾咀靈灰安置所)",
      "seq": "1",
      "stop": "K52A-D010",
      "lat": "22.420002",
      "long": "113.919644"
    },
    {
      "company": "mtrbus",
      "route_id": "mtrbus_K52A_I",
      "route": "K52A",
      "dir": "I",
      "from": "曾咀 (曾咀靈灰安置所)",
      "to": "屯門站 (輕鐵屯門站)",
      "name": "沙埔崗127號",
      "seq": "2",
      "stop": "K52A-D020",
      "lat": "22.389103",
      "long": "113.920301"
    },
    {
      "company": "mtrbus",
      "route_id": "mtrbus_K52A_I",
      "route": "K52A",
      "dir": "I",
      "from": "曾咀 (曾咀靈灰安置所)",
      "to": "屯門站 (輕鐵屯門站)",
      "name": "沙埔崗177號",
      "seq": "3",
      "stop": "K52A-D030",
      "lat": "22.388058",
      "long": "113.920786"
    },
    {
      "company": "mtrbus",
      "route_id": "mtrbus_K52A_I",
      "route": "K52A",
      "dir": "I",
      "from": "曾咀 (曾咀靈灰安置所)",
      "to": "屯門站 (輕鐵屯門站)",
      "name": "沙埔崗288號",
      "seq": "4",
      "stop": "K52A-D040",
      "lat": "22.386623",
      "long": "113.921158"
    },
    {
      "company": "mtrbus",
      "route_id": "mtrbus_K52A_I",
      "route": "K52A",
      "dir": "I",
      "from": "曾咀 (曾咀靈灰安置所)",
      "to": "屯門站 (輕鐵屯門站)",
      "name": "沙埔崗351號",
      "seq": "5",
      "stop": "K52A-D050",
      "lat": "22.385511",
      "long": "113.921257"
    },
    {
      "company": "mtrbus",
      "route_id": "mtrbus_K52A_I",
      "route": "K52A",
      "dir": "I",
      "from": "曾咀 (曾咀靈灰安置所)",
      "to": "屯門站 (輕鐵屯門站)",
      "name": "中電 A廠",
      "seq": "6",
      "stop": "K52A-D060",
      "lat": "22.38252",
      "long": "113.92102"
    },
    {
      "company": "mtrbus",
      "route_id": "mtrbus_K52A_I",
      "route": "K52A",
      "dir": "I",
      "from": "曾咀 (曾咀靈灰安置所)",
      "to": "屯門站 (輕鐵屯門站)",
      "name": "紹榮鋼鐵",
      "seq": "7",
      "stop": "K52A-D070",
      "lat": "22.37012",
      "long": "113.92898"
    },
    {
      "company": "mtrbus",
      "route_id": "mtrbus_K52A_I",
      "route": "K52A",
      "dir": "I",
      "from": "曾咀 (曾咀靈灰安置所)",
      "to": "屯門站 (輕鐵屯門站)",
      "name": "環保園",
      "seq": "8",
      "stop": "K52A-D080",
      "lat": "22.37001",
      "long": "113.93439"
    },
    {
      "company": "mtrbus",
      "route_id": "mtrbus_K52A_I",
      "route": "K52A",
      "dir": "I",
      "from": "曾咀 (曾咀靈灰安置所)",
      "to": "屯門站 (輕鐵屯門站)",
      "name": "內河碼頭",
      "seq": "9",
      "stop": "K52A-D090",
      "lat": "22.36855",
      "long": "113.938063"
    },
    {
      "company": "mtrbus",
      "route_id": "mtrbus_K52A_I",
      "route": "K52A",
      "dir": "I",
      "from": "曾咀 (曾咀靈灰安置所)",
      "to": "屯門站 (輕鐵屯門站)",
      "name": "政府車場",
      "seq": "10",
      "stop": "K52A-D100",
      "lat": "22.366875",
      "long": "113.944272"
    },
    {
      "company": "mtrbus",
      "route_id": "mtrbus_K52A_I",
      "route": "K52A",
      "dir": "I",
      "from": "曾咀 (曾咀靈灰安置所)",
      "to": "屯門站 (輕鐵屯門站)",
      "name": "望后石",
      "seq": "11",
      "stop": "K52A-D110",
      "lat": "22.368667",
      "long": "113.948837"
    },
    {
      "company": "mtrbus",
      "route_id": "mtrbus_K52A_I",
      "route": "K52A",
      "dir": "I",
      "from": "曾咀 (曾咀靈灰安置所)",
      "to": "屯門站 (輕鐵屯門站)",
      "name": "蝴蝶灣公園",
      "seq": "12",
      "stop": "K52A-D120",
      "lat": "22.3729",
      "long": "113.954631"
    },
    {
      "company": "mtrbus",
      "route_id": "mtrbus_K52A_I",
      "route": "K52A",
      "dir": "I",
      "from": "曾咀 (曾咀靈灰安置所)",
      "to": "屯門站 (輕鐵屯門站)",
      "name": "屯門公眾騎術學校",
      "seq": "13",
      "stop": "K52A-D130",
      "lat": "22.375258",
      "long": "113.958583"
    },
    {
      "company": "mtrbus",
      "route_id": "mtrbus_K52A_I",
      "route": "K52A",
      "dir": "I",
      "from": "曾咀 (曾咀靈灰安置所)",
      "to": "屯門站 (輕鐵屯門站)",
      "name": "輕鐵蝴蝶站",
      "seq": "14",
      "stop": "K52A-D140",
      "lat": "22.378359",
      "long": "113.961955"
    },
    {
      "company": "mtrbus",
      "route_id": "mtrbus_K52A_I",
      "route": "K52A",
      "dir": "I",
      "from": "曾咀 (曾咀靈灰安置所)",
      "to": "屯門站 (輕鐵屯門站)",
      "name": "輕鐵車廠站",
      "seq": "15",
      "stop": "K52A-D150",
      "lat": "22.382203",
      "long": "113.96359"
    },
    {
      "company": "mtrbus",
      "route_id": "mtrbus_K52A_I",
      "route": "K52A",
      "dir": "I",
      "from": "曾咀 (曾咀靈灰安置所)",
      "to": "屯門站 (輕鐵屯門站)",
      "name": "輕鐵龍門站",
      "seq": "16",
      "stop": "K52A-D160",
      "lat": "22.385399",
      "long": "113.965222"
    },
    {
      "company": "mtrbus",
      "route_id": "mtrbus_K52A_I",
      "route": "K52A",
      "dir": "I",
      "from": "曾咀 (曾咀靈灰安置所)",
      "to": "屯門站 (輕鐵屯門站)",
      "name": "輕鐵青雲站",
      "seq": "17",
      "stop": "K52A-D170",
      "lat": "22.393627",
      "long": "113.96752"
    },
    {
      "company": "mtrbus",
      "route_id": "mtrbus_K52A_I",
      "route": "K52A",
      "dir": "I",
      "from": "曾咀 (曾咀靈灰安置所)",
      "to": "屯門站 (輕鐵屯門站)",
      "name": "輕鐵建安站",
      "seq": "18",
      "stop": "K52A-D180",
      "lat": "22.395064",
      "long": "113.969953"
    },
    {
      "company": "mtrbus",
      "route_id": "mtrbus_K52A_I",
      "route": "K52A",
      "dir": "I",
      "from": "曾咀 (曾咀靈灰安置所)",
      "to": "屯門站 (輕鐵屯門站)",
      "name": "屯門站 (輕鐵屯門站)",
      "seq": "19",
      "stop": "K52A-D190",
      "lat": "22.394225",
      "long": "113.973358"
    }
  ],
  "mtrbus_K53_O": [
    {
      "company": "mtrbus",
      "route_id": "mtrbus_K53_O",
      "route": "K53",
      "dir": "O",
      "from": "屯門站 (輕鐵屯門站)",
      "to": "屯門站 (輕鐵屯門站)",
      "name": "屯門站 (輕鐵屯門站)",
      "seq": "1",
      "stop": "K53-U010",
      "lat": "22.394225",
      "long": "113.973358"
    },
    {
      "company": "mtrbus",
      "route_id": "mtrbus_K53_O",
      "route": "K53",
      "dir": "O",
      "from": "屯門站 (輕鐵屯門站)",
      "to": "屯門站 (輕鐵屯門站)",
      "name": "屯門市中心",
      "seq": "2",
      "stop": "K53-U020",
      "lat": "22.391543",
      "long": "113.975435"
    },
    {
      "company": "mtrbus",
      "route_id": "mtrbus_K53_O",
      "route": "K53",
      "dir": "O",
      "from": "屯門站 (輕鐵屯門站)",
      "to": "屯門站 (輕鐵屯門站)",
      "name": "屯門官立中學",
      "seq": "3",
      "stop": "K53-U030",
      "lat": "22.390622",
      "long": "113.978751"
    },
    {
      "company": "mtrbus",
      "route_id": "mtrbus_K53_O",
      "route": "K53",
      "dir": "O",
      "from": "屯門站 (輕鐵屯門站)",
      "to": "屯門站 (輕鐵屯門站)",
      "name": "恒順園",
      "seq": "4",
      "stop": "K53-U040",
      "lat": "22.387719",
      "long": "113.980762"
    },
    {
      "company": "mtrbus",
      "route_id": "mtrbus_K53_O",
      "route": "K53",
      "dir": "O",
      "from": "屯門站 (輕鐵屯門站)",
      "to": "屯門站 (輕鐵屯門站)",
      "name": "恒豐園",
      "seq": "5",
      "stop": "K53-U050",
      "lat": "22.385247",
      "long": "113.981068"
    },
    {
      "company": "mtrbus",
      "route_id": "mtrbus_K53_O",
      "route": "K53",
      "dir": "O",
      "from": "屯門站 (輕鐵屯門站)",
      "to": "屯門站 (輕鐵屯門站)",
      "name": "三聖邨",
      "seq": "6",
      "stop": "K53-U060",
      "lat": "22.381732",
      "long": "113.978847"
    },
    {
      "company": "mtrbus",
      "route_id": "mtrbus_K53_O",
      "route": "K53",
      "dir": "O",
      "from": "屯門站 (輕鐵屯門站)",
      "to": "屯門站 (輕鐵屯門站)",
      "name": "青山灣",
      "seq": "7",
      "stop": "K53-U070",
      "lat": "22.378923",
      "long": "113.980763"
    },
    {
      "company": "mtrbus",
      "route_id": "mtrbus_K53_O",
      "route": "K53",
      "dir": "O",
      "from": "屯門站 (輕鐵屯門站)",
      "to": "屯門站 (輕鐵屯門站)",
      "name": "海景花園",
      "seq": "8",
      "stop": "K53-U080",
      "lat": "22.377877",
      "long": "113.983564"
    },
    {
      "company": "mtrbus",
      "route_id": "mtrbus_K53_O",
      "route": "K53",
      "dir": "O",
      "from": "屯門站 (輕鐵屯門站)",
      "to": "屯門站 (輕鐵屯門站)",
      "name": "咖啡灣",
      "seq": "9",
      "stop": "K53-U090",
      "lat": "22.374926",
      "long": "113.986745"
    },
    {
      "company": "mtrbus",
      "route_id": "mtrbus_K53_O",
      "route": "K53",
      "dir": "O",
      "from": "屯門站 (輕鐵屯門站)",
      "to": "屯門站 (輕鐵屯門站)",
      "name": "黃金泳灘",
      "seq": "10",
      "stop": "K53-U100",
      "lat": "22.373785",
      "long": "113.990848"
    },
    {
      "company": "mtrbus",
      "route_id": "mtrbus_K53_O",
      "route": "K53",
      "dir": "O",
      "from": "屯門站 (輕鐵屯門站)",
      "to": "屯門站 (輕鐵屯門站)",
      "name": "香港黃金海岸",
      "seq": "11",
      "stop": "K53-U110",
      "lat": "22.372048",
      "long": "113.993608"
    },
    {
      "company": "mtrbus",
      "route_id": "mtrbus_K53_O",
      "route": "K53",
      "dir": "O",
      "from": "屯門站 (輕鐵屯門站)",
      "to": "屯門站 (輕鐵屯門站)",
      "name": "愛琴海岸",
      "seq": "12",
      "stop": "K53-U120",
      "lat": "22.371605",
      "long": "113.9954"
    },
    {
      "company": "mtrbus",
      "route_id": "mtrbus_K53_O",
      "route": "K53",
      "dir": "O",
      "from": "屯門站 (輕鐵屯門站)",
      "to": "屯門站 (輕鐵屯門站)",
      "name": "掃管笏變電站",
      "seq": "13",
      "stop": "K53-U130",
      "lat": "22.373878",
      "long": "113.996144"
    },
    {
      "company": "mtrbus",
      "route_id": "mtrbus_K53_O",
      "route": "K53",
      "dir": "O",
      "from": "屯門站 (輕鐵屯門站)",
      "to": "屯門站 (輕鐵屯門站)",
      "name": "掃管笏村",
      "seq": "14",
      "stop": "K53-U140",
      "lat": "22.375743",
      "long": "113.999829"
    },
    {
      "company": "mtrbus",
      "route_id": "mtrbus_K53_O",
      "route": "K53",
      "dir": "O",
      "from": "屯門站 (輕鐵屯門站)",
      "to": "屯門站 (輕鐵屯門站)",
      "name": "掃管笏 (鄭任安夫人千禧小學)",
      "seq": "15",
      "stop": "K53-D010",
      "lat": "22.372023",
      "long": "114.003593"
    },
    {
      "company": "mtrbus",
      "route_id": "mtrbus_K53_O",
      "route": "K53",
      "dir": "O",
      "from": "屯門站 (輕鐵屯門站)",
      "to": "屯門站 (輕鐵屯門站)",
      "name": "掃管笏路",
      "seq": "16",
      "stop": "K53-D015",
      "lat": "22.374216",
      "long": "114.002295"
    },
    {
      "company": "mtrbus",
      "route_id": "mtrbus_K53_O",
      "route": "K53",
      "dir": "O",
      "from": "屯門站 (輕鐵屯門站)",
      "to": "屯門站 (輕鐵屯門站)",
      "name": "管翠路18號",
      "seq": "17",
      "stop": "K53-D020",
      "lat": "22.373866",
      "long": "114.001024"
    },
    {
      "company": "mtrbus",
      "route_id": "mtrbus_K53_O",
      "route": "K53",
      "dir": "O",
      "from": "屯門站 (輕鐵屯門站)",
      "to": "屯門站 (輕鐵屯門站)",
      "name": "管翠路",
      "seq": "18",
      "stop": "K53-D030",
      "lat": "22.375123",
      "long": "113.997707"
    },
    {
      "company": "mtrbus",
      "route_id": "mtrbus_K53_O",
      "route": "K53",
      "dir": "O",
      "from": "屯門站 (輕鐵屯門站)",
      "to": "屯門站 (輕鐵屯門站)",
      "name": "愛琴海岸",
      "seq": "19",
      "stop": "K53-D040",
      "lat": "22.371473",
      "long": "113.995381"
    },
    {
      "company": "mtrbus",
      "route_id": "mtrbus_K53_O",
      "route": "K53",
      "dir": "O",
      "from": "屯門站 (輕鐵屯門站)",
      "to": "屯門站 (輕鐵屯門站)",
      "name": "香港黃金海岸",
      "seq": "20",
      "stop": "K53-D050",
      "lat": "22.371294",
      "long": "113.993906"
    },
    {
      "company": "mtrbus",
      "route_id": "mtrbus_K53_O",
      "route": "K53",
      "dir": "O",
      "from": "屯門站 (輕鐵屯門站)",
      "to": "屯門站 (輕鐵屯門站)",
      "name": "黃金泳灘",
      "seq": "21",
      "stop": "K53-D060",
      "lat": "22.373653",
      "long": "113.991237"
    },
    {
      "company": "mtrbus",
      "route_id": "mtrbus_K53_O",
      "route": "K53",
      "dir": "O",
      "from": "屯門站 (輕鐵屯門站)",
      "to": "屯門站 (輕鐵屯門站)",
      "name": "咖啡灣",
      "seq": "22",
      "stop": "K53-D070",
      "lat": "22.375924",
      "long": "113.985662"
    },
    {
      "company": "mtrbus",
      "route_id": "mtrbus_K53_O",
      "route": "K53",
      "dir": "O",
      "from": "屯門站 (輕鐵屯門站)",
      "to": "屯門站 (輕鐵屯門站)",
      "name": "碧翠花園",
      "seq": "23",
      "stop": "K53-D080",
      "lat": "22.377941",
      "long": "113.983293"
    },
    {
      "company": "mtrbus",
      "route_id": "mtrbus_K53_O",
      "route": "K53",
      "dir": "O",
      "from": "屯門站 (輕鐵屯門站)",
      "to": "屯門站 (輕鐵屯門站)",
      "name": "青山灣碼頭",
      "seq": "24",
      "stop": "K53-D090",
      "lat": "22.378954",
      "long": "113.980609"
    },
    {
      "company": "mtrbus",
      "route_id": "mtrbus_K53_O",
      "route": "K53",
      "dir": "O",
      "from": "屯門站 (輕鐵屯門站)",
      "to": "屯門站 (輕鐵屯門站)",
      "name": "三聖邨",
      "seq": "25",
      "stop": "K53-D100",
      "lat": "22.381245",
      "long": "113.979119"
    },
    {
      "company": "mtrbus",
      "route_id": "mtrbus_K53_O",
      "route": "K53",
      "dir": "O",
      "from": "屯門站 (輕鐵屯門站)",
      "to": "屯門站 (輕鐵屯門站)",
      "name": "恆福花園 (輕鐵三聖站)",
      "seq": "26",
      "stop": "K53-D110",
      "lat": "22.382079",
      "long": "113.977158"
    },
    {
      "company": "mtrbus",
      "route_id": "mtrbus_K53_O",
      "route": "K53",
      "dir": "O",
      "from": "屯門站 (輕鐵屯門站)",
      "to": "屯門站 (輕鐵屯門站)",
      "name": "胡陳金枝中學",
      "seq": "27",
      "stop": "K53-D120",
      "lat": "22.383774",
      "long": "113.97939"
    },
    {
      "company": "mtrbus",
      "route_id": "mtrbus_K53_O",
      "route": "K53",
      "dir": "O",
      "from": "屯門站 (輕鐵屯門站)",
      "to": "屯門站 (輕鐵屯門站)",
      "name": "青善遊樂場",
      "seq": "28",
      "stop": "K53-D130",
      "lat": "22.38463",
      "long": "113.980641"
    },
    {
      "company": "mtrbus",
      "route_id": "mtrbus_K53_O",
      "route": "K53",
      "dir": "O",
      "from": "屯門站 (輕鐵屯門站)",
      "to": "屯門站 (輕鐵屯門站)",
      "name": "置樂花園",
      "seq": "29",
      "stop": "K53-D140",
      "lat": "22.387328",
      "long": "113.980668"
    },
    {
      "company": "mtrbus",
      "route_id": "mtrbus_K53_O",
      "route": "K53",
      "dir": "O",
      "from": "屯門站 (輕鐵屯門站)",
      "to": "屯門站 (輕鐵屯門站)",
      "name": "屯門官立中學",
      "seq": "30",
      "stop": "K53-D150",
      "lat": "22.390452",
      "long": "113.978855"
    },
    {
      "company": "mtrbus",
      "route_id": "mtrbus_K53_O",
      "route": "K53",
      "dir": "O",
      "from": "屯門站 (輕鐵屯門站)",
      "to": "屯門站 (輕鐵屯門站)",
      "name": "輕鐵市中心站",
      "seq": "31",
      "stop": "K53-D160",
      "lat": "22.392116",
      "long": "113.975082"
    },
    {
      "company": "mtrbus",
      "route_id": "mtrbus_K53_O",
      "route": "K53",
      "dir": "O",
      "from": "屯門站 (輕鐵屯門站)",
      "to": "屯門站 (輕鐵屯門站)",
      "name": "屯門站 (輕鐵屯門站)",
      "seq": "32",
      "stop": "K53-D170",
      "lat": "22.394225",
      "long": "113.973358"
    },
    {
      "company": "mtrbus",
      "route_id": "mtrbus_K53_O",
      "route": "K53",
      "dir": "O",
      "from": "屯門站 (輕鐵屯門站)",
      "to": "屯門站 (輕鐵屯門站)",
      "name": "天后路(服務時間請參考路綫圖)",
      "seq": "33",
      "stop": "K53-D180",
      "lat": "22.391668",
      "long": "113.971547"
    },
    {
      "company": "mtrbus",
      "route_id": "mtrbus_K53_O",
      "route": "K53",
      "dir": "O",
      "from": "屯門站 (輕鐵屯門站)",
      "to": "屯門站 (輕鐵屯門站)",
      "name": "業旺邨(服務時間請參考路綫圖)",
      "seq": "34",
      "stop": "K53-D190",
      "lat": "22.38814",
      "long": "113.97015"
    },
    {
      "company": "mtrbus",
      "route_id": "mtrbus_K53_O",
      "route": "K53",
      "dir": "O",
      "from": "屯門站 (輕鐵屯門站)",
      "to": "屯門站 (輕鐵屯門站)",
      "name": "屯門站 (輕鐵屯門站)",
      "seq": "32",
      "stop": "K53-U011",
      "lat": "22.394225",
      "long": "113.973358"
    }
  ],
  "mtrbus_K54_O": [
    {
      "company": "mtrbus",
      "route_id": "mtrbus_K54_O",
      "route": "K54",
      "dir": "O",
      "from": "和田邨",
      "to": "和田邨",
      "name": "和田邨",
      "seq": "1",
      "stop": "K54-U010",
      "lat": "22.41295362",
      "long": "113.9686386"
    },
    {
      "company": "mtrbus",
      "route_id": "mtrbus_K54_O",
      "route": "K54",
      "dir": "O",
      "from": "和田邨",
      "to": "和田邨",
      "name": "菁田邨",
      "seq": "2",
      "stop": "K54-U020",
      "lat": "22.41229368",
      "long": "113.9705794"
    },
    {
      "company": "mtrbus",
      "route_id": "mtrbus_K54_O",
      "route": "K54",
      "dir": "O",
      "from": "和田邨",
      "to": "和田邨",
      "name": "紫田村",
      "seq": "3",
      "stop": "K54-U030",
      "lat": "22.41439481",
      "long": "113.9738808"
    },
    {
      "company": "mtrbus",
      "route_id": "mtrbus_K54_O",
      "route": "K54",
      "dir": "O",
      "from": "和田邨",
      "to": "和田邨",
      "name": "欣田邨",
      "seq": "4",
      "stop": "K54-U040",
      "lat": "22.41435",
      "long": "113.97701"
    },
    {
      "company": "mtrbus",
      "route_id": "mtrbus_K54_O",
      "route": "K54",
      "dir": "O",
      "from": "和田邨",
      "to": "和田邨",
      "name": "港鐵兆康站 (北) (輕鐵兆康站)",
      "seq": "5",
      "stop": "K54-U050",
      "lat": "22.4134",
      "long": "113.97902"
    },
    {
      "company": "mtrbus",
      "route_id": "mtrbus_K54_O",
      "route": "K54",
      "dir": "O",
      "from": "和田邨",
      "to": "和田邨",
      "name": "紅橋",
      "seq": "6",
      "stop": "K54-U060",
      "lat": "22.40199647",
      "long": "113.977489"
    },
    {
      "company": "mtrbus",
      "route_id": "mtrbus_K54_O",
      "route": "K54",
      "dir": "O",
      "from": "和田邨",
      "to": "和田邨",
      "name": "屯門市中心",
      "seq": "7",
      "stop": "K54-U070",
      "lat": "22.391389",
      "long": "113.975465"
    },
    {
      "company": "mtrbus",
      "route_id": "mtrbus_K54_O",
      "route": "K54",
      "dir": "O",
      "from": "和田邨",
      "to": "和田邨",
      "name": "屯門市廣場",
      "seq": "8",
      "stop": "K54-D010",
      "lat": "22.39272978",
      "long": "113.9769618"
    },
    {
      "company": "mtrbus",
      "route_id": "mtrbus_K54_O",
      "route": "K54",
      "dir": "O",
      "from": "和田邨",
      "to": "和田邨",
      "name": "新墟街市",
      "seq": "9",
      "stop": "K54-D020",
      "lat": "22.3989419",
      "long": "113.9766028"
    },
    {
      "company": "mtrbus",
      "route_id": "mtrbus_K54_O",
      "route": "K54",
      "dir": "O",
      "from": "和田邨",
      "to": "和田邨",
      "name": "港鐵兆康站 (北) (輕鐵兆康站)",
      "seq": "10",
      "stop": "K54-D030",
      "lat": "22.41357",
      "long": "113.9791"
    },
    {
      "company": "mtrbus",
      "route_id": "mtrbus_K54_O",
      "route": "K54",
      "dir": "O",
      "from": "和田邨",
      "to": "和田邨",
      "name": "兆康苑",
      "seq": "11",
      "stop": "K54-D040",
      "lat": "22.414907",
      "long": "113.977412"
    },
    {
      "company": "mtrbus",
      "route_id": "mtrbus_K54_O",
      "route": "K54",
      "dir": "O",
      "from": "和田邨",
      "to": "和田邨",
      "name": "欣寶路公共運輸交匯處",
      "seq": "12",
      "stop": "K54-D050",
      "lat": "22.41309916",
      "long": "113.9723357"
    },
    {
      "company": "mtrbus",
      "route_id": "mtrbus_K54_O",
      "route": "K54",
      "dir": "O",
      "from": "和田邨",
      "to": "和田邨",
      "name": "菁田邨",
      "seq": "13",
      "stop": "K54-D060",
      "lat": "22.41197411",
      "long": "113.9703303"
    },
    {
      "company": "mtrbus",
      "route_id": "mtrbus_K54_O",
      "route": "K54",
      "dir": "O",
      "from": "和田邨",
      "to": "和田邨",
      "name": "和田邨",
      "seq": "14",
      "stop": "K54-D070",
      "lat": "22.41295362",
      "long": "113.9686386"
    }
  ],
  "mtrbus_K58_O": [
    {
      "company": "mtrbus",
      "route_id": "mtrbus_K58_O",
      "route": "K58",
      "dir": "O",
      "from": "富泰",
      "to": "青山灣",
      "name": "富泰",
      "seq": "1",
      "stop": "K58-U010",
      "lat": "22.412815",
      "long": "113.982949"
    },
    {
      "company": "mtrbus",
      "route_id": "mtrbus_K58_O",
      "route": "K58",
      "dir": "O",
      "from": "富泰",
      "to": "青山灣",
      "name": "聚康山莊",
      "seq": "2",
      "stop": "K58-U020",
      "lat": "22.412004",
      "long": "113.98378"
    },
    {
      "company": "mtrbus",
      "route_id": "mtrbus_K58_O",
      "route": "K58",
      "dir": "O",
      "from": "富泰",
      "to": "青山灣",
      "name": "嶺南大學",
      "seq": "3",
      "stop": "K58-U023",
      "lat": "22.41059",
      "long": "113.982387"
    },
    {
      "company": "mtrbus",
      "route_id": "mtrbus_K58_O",
      "route": "K58",
      "dir": "O",
      "from": "富泰",
      "to": "青山灣",
      "name": "彩暉花園",
      "seq": "4",
      "stop": "K58-U026",
      "lat": "22.408575",
      "long": "113.980046"
    },
    {
      "company": "mtrbus",
      "route_id": "mtrbus_K58_O",
      "route": "K58",
      "dir": "O",
      "from": "富泰",
      "to": "青山灣",
      "name": "港鐵兆康站 (南) (輕鐵兆康站)",
      "seq": "5",
      "stop": "K58-U030",
      "lat": "22.410247",
      "long": "113.978583"
    },
    {
      "company": "mtrbus",
      "route_id": "mtrbus_K58_O",
      "route": "K58",
      "dir": "O",
      "from": "富泰",
      "to": "青山灣",
      "name": "兆康苑",
      "seq": "6",
      "stop": "K58-U040",
      "lat": "22.4137",
      "long": "113.976951"
    },
    {
      "company": "mtrbus",
      "route_id": "mtrbus_K58_O",
      "route": "K58",
      "dir": "O",
      "from": "富泰",
      "to": "青山灣",
      "name": "輕鐵麒麟站",
      "seq": "7",
      "stop": "K58-U050",
      "lat": "22.41013",
      "long": "113.976505"
    },
    {
      "company": "mtrbus",
      "route_id": "mtrbus_K58_O",
      "route": "K58",
      "dir": "O",
      "from": "富泰",
      "to": "青山灣",
      "name": "屯門醫院",
      "seq": "8",
      "stop": "K58-U060",
      "lat": "22.408609",
      "long": "113.975571"
    },
    {
      "company": "mtrbus",
      "route_id": "mtrbus_K58_O",
      "route": "K58",
      "dir": "O",
      "from": "富泰",
      "to": "青山灣",
      "name": "青松觀",
      "seq": "9",
      "stop": "K58-U070",
      "lat": "22.406276",
      "long": "113.971935"
    },
    {
      "company": "mtrbus",
      "route_id": "mtrbus_K58_O",
      "route": "K58",
      "dir": "O",
      "from": "富泰",
      "to": "青山灣",
      "name": "保良局莊啟程第二小學",
      "seq": "10",
      "stop": "K58-U080",
      "lat": "22.404952",
      "long": "113.968844"
    },
    {
      "company": "mtrbus",
      "route_id": "mtrbus_K58_O",
      "route": "K58",
      "dir": "O",
      "from": "富泰",
      "to": "青山灣",
      "name": "何壽基小學",
      "seq": "11",
      "stop": "K58-U090",
      "lat": "22.405728",
      "long": "113.967008"
    },
    {
      "company": "mtrbus",
      "route_id": "mtrbus_K58_O",
      "route": "K58",
      "dir": "O",
      "from": "富泰",
      "to": "青山灣",
      "name": "良景邨",
      "seq": "12",
      "stop": "K58-U100",
      "lat": "22.407089",
      "long": "113.964247"
    },
    {
      "company": "mtrbus",
      "route_id": "mtrbus_K58_O",
      "route": "K58",
      "dir": "O",
      "from": "富泰",
      "to": "青山灣",
      "name": "輕鐵新圍站",
      "seq": "13",
      "stop": "K58-U110",
      "lat": "22.405394",
      "long": "113.964648"
    },
    {
      "company": "mtrbus",
      "route_id": "mtrbus_K58_O",
      "route": "K58",
      "dir": "O",
      "from": "富泰",
      "to": "青山灣",
      "name": "輕鐵石排站",
      "seq": "14",
      "stop": "K58-U120",
      "lat": "22.401886",
      "long": "113.96805"
    },
    {
      "company": "mtrbus",
      "route_id": "mtrbus_K58_O",
      "route": "K58",
      "dir": "O",
      "from": "富泰",
      "to": "青山灣",
      "name": "輕鐵鳴琴站",
      "seq": "15",
      "stop": "K58-U130",
      "lat": "22.396961",
      "long": "113.967622"
    },
    {
      "company": "mtrbus",
      "route_id": "mtrbus_K58_O",
      "route": "K58",
      "dir": "O",
      "from": "富泰",
      "to": "青山灣",
      "name": "輕鐵建安站",
      "seq": "16",
      "stop": "K58-U140",
      "lat": "22.395021",
      "long": "113.969976"
    },
    {
      "company": "mtrbus",
      "route_id": "mtrbus_K58_O",
      "route": "K58",
      "dir": "O",
      "from": "富泰",
      "to": "青山灣",
      "name": "港鐵屯門站",
      "seq": "17",
      "stop": "K58-U150",
      "lat": "22.394225",
      "long": "113.973358"
    },
    {
      "company": "mtrbus",
      "route_id": "mtrbus_K58_O",
      "route": "K58",
      "dir": "O",
      "from": "富泰",
      "to": "青山灣",
      "name": "屯門市中心",
      "seq": "18",
      "stop": "K58-U160",
      "lat": "22.391389",
      "long": "113.975465"
    },
    {
      "company": "mtrbus",
      "route_id": "mtrbus_K58_O",
      "route": "K58",
      "dir": "O",
      "from": "富泰",
      "to": "青山灣",
      "name": "屯門官立中學",
      "seq": "19",
      "stop": "K58-U170",
      "lat": "22.390652",
      "long": "113.978795"
    },
    {
      "company": "mtrbus",
      "route_id": "mtrbus_K58_O",
      "route": "K58",
      "dir": "O",
      "from": "富泰",
      "to": "青山灣",
      "name": "恒順園",
      "seq": "20",
      "stop": "K58-U180",
      "lat": "22.387795",
      "long": "113.980743"
    },
    {
      "company": "mtrbus",
      "route_id": "mtrbus_K58_O",
      "route": "K58",
      "dir": "O",
      "from": "富泰",
      "to": "青山灣",
      "name": "恒豐園",
      "seq": "21",
      "stop": "K58-U190",
      "lat": "22.385271",
      "long": "113.981071"
    },
    {
      "company": "mtrbus",
      "route_id": "mtrbus_K58_O",
      "route": "K58",
      "dir": "O",
      "from": "富泰",
      "to": "青山灣",
      "name": "三聖邨",
      "seq": "22",
      "stop": "K58-U200",
      "lat": "22.381705",
      "long": "113.978852"
    },
    {
      "company": "mtrbus",
      "route_id": "mtrbus_K58_O",
      "route": "K58",
      "dir": "O",
      "from": "富泰",
      "to": "青山灣",
      "name": "青山灣",
      "seq": "23",
      "stop": "K58-U210",
      "lat": "22.379752",
      "long": "113.980639"
    }
  ],
  "mtrbus_K58_I": [
    {
      "company": "mtrbus",
      "route_id": "mtrbus_K58_I",
      "route": "K58",
      "dir": "I",
      "from": "青山灣",
      "to": "富泰",
      "name": "青山灣",
      "seq": "1",
      "stop": "K58-D010",
      "lat": "22.379752",
      "long": "113.980639"
    },
    {
      "company": "mtrbus",
      "route_id": "mtrbus_K58_I",
      "route": "K58",
      "dir": "I",
      "from": "青山灣",
      "to": "富泰",
      "name": "三聖邨",
      "seq": "2",
      "stop": "K58-D020",
      "lat": "22.381189",
      "long": "113.979146"
    },
    {
      "company": "mtrbus",
      "route_id": "mtrbus_K58_I",
      "route": "K58",
      "dir": "I",
      "from": "青山灣",
      "to": "富泰",
      "name": "胡陳金枝中學",
      "seq": "3",
      "stop": "K58-D030",
      "lat": "22.383774",
      "long": "113.97939"
    },
    {
      "company": "mtrbus",
      "route_id": "mtrbus_K58_I",
      "route": "K58",
      "dir": "I",
      "from": "青山灣",
      "to": "富泰",
      "name": "青善遊樂場",
      "seq": "4",
      "stop": "K58-D040",
      "lat": "22.38458",
      "long": "113.980659"
    },
    {
      "company": "mtrbus",
      "route_id": "mtrbus_K58_I",
      "route": "K58",
      "dir": "I",
      "from": "青山灣",
      "to": "富泰",
      "name": "置樂花園",
      "seq": "5",
      "stop": "K58-D050",
      "lat": "22.387305",
      "long": "113.980672"
    },
    {
      "company": "mtrbus",
      "route_id": "mtrbus_K58_I",
      "route": "K58",
      "dir": "I",
      "from": "青山灣",
      "to": "富泰",
      "name": "屯門官立中學",
      "seq": "6",
      "stop": "K58-D060",
      "lat": "22.39043",
      "long": "113.978867"
    },
    {
      "company": "mtrbus",
      "route_id": "mtrbus_K58_I",
      "route": "K58",
      "dir": "I",
      "from": "青山灣",
      "to": "富泰",
      "name": "輕鐵市中心站",
      "seq": "7",
      "stop": "K58-D070",
      "lat": "22.392096",
      "long": "113.97512"
    },
    {
      "company": "mtrbus",
      "route_id": "mtrbus_K58_I",
      "route": "K58",
      "dir": "I",
      "from": "青山灣",
      "to": "富泰",
      "name": "輕鐵屯門站 (港鐵屯門站)",
      "seq": "8",
      "stop": "K58-D080",
      "lat": "22.39395",
      "long": "113.9737"
    },
    {
      "company": "mtrbus",
      "route_id": "mtrbus_K58_I",
      "route": "K58",
      "dir": "I",
      "from": "青山灣",
      "to": "富泰",
      "name": "輕鐵建安站",
      "seq": "9",
      "stop": "K58-D090",
      "lat": "22.394699",
      "long": "113.970762"
    },
    {
      "company": "mtrbus",
      "route_id": "mtrbus_K58_I",
      "route": "K58",
      "dir": "I",
      "from": "青山灣",
      "to": "富泰",
      "name": "輕鐵鳴琴站",
      "seq": "10",
      "stop": "K58-D100",
      "lat": "22.396769",
      "long": "113.967425"
    },
    {
      "company": "mtrbus",
      "route_id": "mtrbus_K58_I",
      "route": "K58",
      "dir": "I",
      "from": "青山灣",
      "to": "富泰",
      "name": "輕鐵石排站",
      "seq": "11",
      "stop": "K58-D110",
      "lat": "22.401983",
      "long": "113.967883"
    },
    {
      "company": "mtrbus",
      "route_id": "mtrbus_K58_I",
      "route": "K58",
      "dir": "I",
      "from": "青山灣",
      "to": "富泰",
      "name": "輕鐵新圍站",
      "seq": "12",
      "stop": "K58-D120",
      "lat": "22.405404",
      "long": "113.963966"
    },
    {
      "company": "mtrbus",
      "route_id": "mtrbus_K58_I",
      "route": "K58",
      "dir": "I",
      "from": "青山灣",
      "to": "富泰",
      "name": "輕鐵田景站",
      "seq": "13",
      "stop": "K58-D130",
      "lat": "22.407716",
      "long": "113.96598"
    },
    {
      "company": "mtrbus",
      "route_id": "mtrbus_K58_I",
      "route": "K58",
      "dir": "I",
      "from": "青山灣",
      "to": "富泰",
      "name": "青田遊樂場",
      "seq": "14",
      "stop": "K58-D140",
      "lat": "22.405974",
      "long": "113.967207"
    },
    {
      "company": "mtrbus",
      "route_id": "mtrbus_K58_I",
      "route": "K58",
      "dir": "I",
      "from": "青山灣",
      "to": "富泰",
      "name": "建生邨樂生樓",
      "seq": "15",
      "stop": "K58-D150",
      "lat": "22.405169",
      "long": "113.968901"
    },
    {
      "company": "mtrbus",
      "route_id": "mtrbus_K58_I",
      "route": "K58",
      "dir": "I",
      "from": "青山灣",
      "to": "富泰",
      "name": "建生邨泰生樓",
      "seq": "16",
      "stop": "K58-D160",
      "lat": "22.406394",
      "long": "113.971667"
    },
    {
      "company": "mtrbus",
      "route_id": "mtrbus_K58_I",
      "route": "K58",
      "dir": "I",
      "from": "青山灣",
      "to": "富泰",
      "name": "輕鐵麒麟站",
      "seq": "17",
      "stop": "K58-D170",
      "lat": "22.411042",
      "long": "113.97648"
    },
    {
      "company": "mtrbus",
      "route_id": "mtrbus_K58_I",
      "route": "K58",
      "dir": "I",
      "from": "青山灣",
      "to": "富泰",
      "name": "欣田邨",
      "seq": "18",
      "stop": "K58-D180",
      "lat": "22.414291",
      "long": "113.977143"
    },
    {
      "company": "mtrbus",
      "route_id": "mtrbus_K58_I",
      "route": "K58",
      "dir": "I",
      "from": "青山灣",
      "to": "富泰",
      "name": "港鐵兆康站 (南) (輕鐵兆康站)",
      "seq": "19",
      "stop": "K58-D190",
      "lat": "22.410378",
      "long": "113.978607"
    },
    {
      "company": "mtrbus",
      "route_id": "mtrbus_K58_I",
      "route": "K58",
      "dir": "I",
      "from": "青山灣",
      "to": "富泰",
      "name": "彩暉花園",
      "seq": "20",
      "stop": "K58-D193",
      "lat": "22.408779",
      "long": "113.980397"
    },
    {
      "company": "mtrbus",
      "route_id": "mtrbus_K58_I",
      "route": "K58",
      "dir": "I",
      "from": "青山灣",
      "to": "富泰",
      "name": "嶺南大學",
      "seq": "21",
      "stop": "K58-D196",
      "lat": "22.410694",
      "long": "113.982212"
    },
    {
      "company": "mtrbus",
      "route_id": "mtrbus_K58_I",
      "route": "K58",
      "dir": "I",
      "from": "青山灣",
      "to": "富泰",
      "name": "倚嶺南庭",
      "seq": "22",
      "stop": "K58-D200",
      "lat": "22.411915",
      "long": "113.983238"
    },
    {
      "company": "mtrbus",
      "route_id": "mtrbus_K58_I",
      "route": "K58",
      "dir": "I",
      "from": "青山灣",
      "to": "富泰",
      "name": "富泰",
      "seq": "23",
      "stop": "K58-D210",
      "lat": "22.412815",
      "long": "113.982949"
    }
  ],
  "mtrbus_K65_O": [
    {
      "company": "mtrbus",
      "route_id": "mtrbus_K65_O",
      "route": "K65",
      "dir": "O",
      "from": "元朗站 (輕鐵元朗站) (港鐵元朗站)",
      "to": "流浮山",
      "name": "元朗站 (輕鐵元朗站) (港鐵元朗站)",
      "seq": "1",
      "stop": "K65-U010",
      "lat": "22.446443",
      "long": "114.034518"
    },
    {
      "company": "mtrbus",
      "route_id": "mtrbus_K65_O",
      "route": "K65",
      "dir": "O",
      "from": "元朗站 (輕鐵元朗站) (港鐵元朗站)",
      "to": "流浮山",
      "name": "又新街",
      "seq": "2",
      "stop": "K65-U020",
      "lat": "22.44451201",
      "long": "114.0315245"
    },
    {
      "company": "mtrbus",
      "route_id": "mtrbus_K65_O",
      "route": "K65",
      "dir": "O",
      "from": "元朗站 (輕鐵元朗站) (港鐵元朗站)",
      "to": "流浮山",
      "name": "大棠路",
      "seq": "3",
      "stop": "K65-U030",
      "lat": "22.4446245",
      "long": "114.028421"
    },
    {
      "company": "mtrbus",
      "route_id": "mtrbus_K65_O",
      "route": "K65",
      "dir": "O",
      "from": "元朗站 (輕鐵元朗站) (港鐵元朗站)",
      "to": "流浮山",
      "name": "康樂路",
      "seq": "4",
      "stop": "K65-U040",
      "lat": "22.44478103",
      "long": "114.026429"
    },
    {
      "company": "mtrbus",
      "route_id": "mtrbus_K65_O",
      "route": "K65",
      "dir": "O",
      "from": "元朗站 (輕鐵元朗站) (港鐵元朗站)",
      "to": "流浮山",
      "name": "元朗警署",
      "seq": "5",
      "stop": "K65-U050",
      "lat": "22.44449303",
      "long": "114.024142"
    },
    {
      "company": "mtrbus",
      "route_id": "mtrbus_K65_O",
      "route": "K65",
      "dir": "O",
      "from": "元朗站 (輕鐵元朗站) (港鐵元朗站)",
      "to": "流浮山",
      "name": "輕鐵水邊圍站",
      "seq": "6",
      "stop": "K65-U060",
      "lat": "22.44449303",
      "long": "114.02119"
    },
    {
      "company": "mtrbus",
      "route_id": "mtrbus_K65_O",
      "route": "K65",
      "dir": "O",
      "from": "元朗站 (輕鐵元朗站) (港鐵元朗站)",
      "to": "流浮山",
      "name": "元朗公園",
      "seq": "7",
      "stop": "K65-U070",
      "lat": "22.44416303",
      "long": "114.018772"
    },
    {
      "company": "mtrbus",
      "route_id": "mtrbus_K65_O",
      "route": "K65",
      "dir": "O",
      "from": "元朗站 (輕鐵元朗站) (港鐵元朗站)",
      "to": "流浮山",
      "name": "朗邊",
      "seq": "8",
      "stop": "K65-U080",
      "lat": "22.44347999",
      "long": "114.014914"
    },
    {
      "company": "mtrbus",
      "route_id": "mtrbus_K65_O",
      "route": "K65",
      "dir": "O",
      "from": "元朗站 (輕鐵元朗站) (港鐵元朗站)",
      "to": "流浮山",
      "name": "屏山屏興里",
      "seq": "9",
      "stop": "K65-U090",
      "lat": "22.443597",
      "long": "114.009912"
    },