{
  "stops": [
    {
      "stopId": "1",
      "stopName_c": "梅窩碼頭",
      "stopName_s": "梅窝码头",
      "stopName_e": "Mui Wo Ferry Pier",
      "stopLocation_c": "梅窩碼頭",
      "stopLocation_s": "梅窝码头",
      "stopLocation_e": "Mui Wo Ferry Pier",
      "latitude": "22.26466400",
      "longitude": "114.00155400",
      "fare": "12.2",
      "fareHoliday": "20.5",
      "someDepartureObserveOnly": 0
    },
    {
      "stopId": "2",
      "stopName_c": "梅窩熟食市場",
      "stopName_s": "梅窝熟食市场",
      "stopName_e": "Mui Wo Cooked Food Market",
      "stopLocation_c": "銀礦灣道",
      "stopLocation_s": "银矿湾道",
      "stopLocation_e": "Ngan Kwong Wan Road",
      "latitude": "22.26614300",
      "longitude": "114.00004900",
      "fare": "12.2",
      "fareHoliday": "20.5",
      "someDepartureObserveOnly": 1
    },
    {
      "stopId": "3",
      "stopName_c": "銀灣邨",
      "stopName_s": "银湾邨",
      "stopName_e": "Ngan Wan Estate",
      "stopLocation_c": "銀礦灣道",
      "stopLocation_s": "银矿湾道",
      "stopLocation_e": "Ngan Kwong Wan Road",
      "latitude": "22.26540600",
      "longitude": "113.99707400",
      "fare": "12.2",
      "fareHoliday": "20.5",
      "someDepartureObserveOnly": 1
    },
    {
      "stopId": "4",
      "stopName_c": "梅窩街市",
      "stopName_s": "梅窝街市",
      "stopName_e": "Mui Wo Market",
      "stopLocation_c": "銀石街",
      "stopLocation_s": "银石街",
      "stopLocation_e": "Ngan Shek Street",
      "latitude": "22.26675900",
      "longitude": "113.99699900",
      "fare": "12.2",
      "fareHoliday": "20.5",
      "someDepartureObserveOnly": 1
    },
    {
      "stopId": "5",
      "stopName_c": "銀景中心",
      "stopName_s": "银景中心",
      "stopName_e": "Ngan King Centre",
      "stopLocation_c": "銀礦灣道",
      "stopLocation_s": "银矿湾道",
      "stopLocation_e": "Ngan Kwong Wan Road",
      "latitude": "22.26553700",
      "longitude": "113.99696500",
      "fare": "12.2",
      "fareHoliday": "20.5",
      "someDepartureObserveOnly": 1
    },
    {
      "stopId": "6",
      "stopName_c": "銀鑛灣濾水廠",
      "stopName_s": "银鑛湾滤水厂",
      "stopName_e": "Silver Mine Bay Water Treatment Works",
      "stopLocation_c": "嶼南道",
      "stopLocation_s": "屿南道",
      "stopLocation_e": "South Lantau Road",
      "latitude": "22.26296600",
      "longitude": "113.99782600",
      "fare": "12.2",
      "fareHoliday": "20.5",
      "someDepartureObserveOnly": 0
    },
    {
      "stopId": "7",
      "stopName_c": "荔枝園",
      "stopName_s": "荔枝园",
      "stopName_e": "Lai Chi Yuen",
      "stopLocation_c": "嶼南道",
      "stopLocation_s": "屿南道",
      "stopLocation_e": "South Lantau Road",
      "latitude": "22.26075800",
      "longitude": "113.99647700",
      "fare": "12.2",
      "fareHoliday": "20.5",
      "someDepartureObserveOnly": 0
    },
    {
      "stopId": "8",
      "stopName_c": "南山三屋村",
      "stopName_s": "南山三屋村",
      "stopName_e": "Nam Shan Sam Uk Tsuen",
      "stopLocation_c": "嶼南道",
      "stopLocation_s": "屿南道",
      "stopLocation_e": "South Lantau Road",
      "latitude": "22.25707200",
      "longitude": "113.99010800",
      "fare": "12.2",
      "fareHoliday": "20.5",
      "someDepartureObserveOnly": 0
    },
    {
      "stopId": "9",
      "stopName_c": "南山營地",
      "stopName_s": "南山营地",
      "stopName_e": "Nam Shan Camp Site",
      "stopLocation_c": "嶼南道",
      "stopLocation_s": "屿南道",
      "stopLocation_e": "South Lantau Road",
      "latitude": "22.25545100",
      "longitude": "113.98681100",
      "fare": "12.2",
      "fareHoliday": "20.5",
      "someDepartureObserveOnly": 0
    },
    {
      "stopId": "10",
      "stopName_c": "太古職員宿舍",
      "stopName_s": "太古职员宿舍",
      "stopName_e": "Swire Staff Holiday House",
      "stopLocation_c": "嶼南道",
      "stopLocation_s": "屿南道",
      "stopLocation_e": "South Lantau Road",
      "latitude": "22.25191800",
      "longitude": "113.98488700",
      "fare": "12.2",
      "fareHoliday": "20.5",
      "someDepartureObserveOnly": 0
    },
    {
      "stopId": "11",
      "stopName_c": "貝澳油站",
      "stopName_s": "贝澳油站",
      "stopName_e": "Pui O Petrol Station",
      "stopLocation_c": "嶼南道",
      "stopLocation_s": "屿南道",
      "stopLocation_e": "South Lantau Road",
      "latitude": "22.24731100",
      "longitude": "113.98098500",
      "fare": "11.4",
      "fareHoliday": "19.2",
      "someDepartureObserveOnly": 0
    },
    {
      "stopId": "12",
      "stopName_c": "老圍村",
      "stopName_s": "老围村",
      "stopName_e": "Lo Wai Tsuen",
      "stopLocation_c": "嶼南道",
      "stopLocation_s": "屿南道",
      "stopLocation_e": "South Lantau Road",
      "latitude": "22.24425200",
      "longitude": "113.97923600",
      "fare": "11.4",
      "fareHoliday": "19.2",
      "someDepartureObserveOnly": 0
    },
    {
      "stopId": "13",
      "stopName_c": "新圍村",
      "stopName_s": "新围村",
      "stopName_e": "Sun Wai Tsuen",
      "stopLocation_c": "嶼南道",
      "stopLocation_s": "屿南道",
      "stopLocation_e": "South Lantau Road",
      "latitude": "22.24347600",
      "longitude": "113.97817800",
      "fare": "11.4",
      "fareHoliday": "19.2",
      "someDepartureObserveOnly": 0
    },
    {
      "stopId": "14",
      "stopName_c": "羅屋村",
      "stopName_s": "罗屋村",
      "stopName_e": "Lo Uk Tsuen",
      "stopLocation_c": "嶼南道",
      "stopLocation_s": "屿南道",
      "stopLocation_e": "South Lantau Road",
      "latitude": "22.24319200",
      "longitude": "113.97488500",
      "fare": "11.4",
      "fareHoliday": "19.2",
      "someDepartureObserveOnly": 0
    },
    {
      "stopId": "15",
      "stopName_c": "牛坳園",
      "stopName_s": "牛坳园",
      "stopName_e": "Ngau Au Yuen",
      "stopLocation_c": "嶼南道",
      "stopLocation_s": "屿南道",
      "stopLocation_e": "South Lantau Road",
      "latitude": "22.24304100",
      "longitude": "113.97254500",
      "fare": "11.4",
      "fareHoliday": "19.2",
      "someDepartureObserveOnly": 0
    },
    {
      "stopId": "16",
      "stopName_c": "散石灣中蘆",
      "stopName_s": "散石湾中芦",
      "stopName_e": "San Shek Wan 3 1/4 Milestone",
      "stopLocation_c": "嶼南道",
      "stopLocation_s": "屿南道",
      "stopLocation_e": "South Lantau Road",
      "latitude": "22.24124400",
      "longitude": "113.96910500",
      "fare": "9.0",
      "fareHoliday": "15.6",
      "someDepartureObserveOnly": 0
    },
    {
      "stopId": "17",
      "stopName_c": "散石灣村",
      "stopName_s": "散石湾村",
      "stopName_e": "San Shek Wan Village",
      "stopLocation_c": "嶼南道",
      "stopLocation_s": "屿南道",
      "stopLocation_e": "South Lantau Road",
      "latitude": "22.23892800",
      "longitude": "113.96677200",
      "fare": "9.0",
      "fareHoliday": "15.6",
      "someDepartureObserveOnly": 0
    },
    {
      "stopId": "18",
      "stopName_c": "女青年會梁紹榮度假村",
      "stopName_s": "女青年会梁绍荣度假村",
      "stopName_e": "YWCA Sydney Leong Holiday Lodge",
      "stopLocation_c": "嶼南道",
      "stopLocation_s": "屿南道",
      "stopLocation_e": "South Lantau Road",
      "latitude": "22.23748400",
      "longitude": "113.96400100",
      "fare": "9.0",
      "fareHoliday": "15.6",
      "someDepartureObserveOnly": 0
    },
    {
      "stopId": "83",
      "stopName_c": "散石灣迴旋處",
      "stopName_s": "散石湾回旋处",
      "stopName_e": "San Shek Wan Roundabout",
      "stopLocation_c": "嶼南道",
      "stopLocation_s": "屿南道",
      "stopLocation_e": "South Lantau Road",
      "latitude": "22.23654400",
      "longitude": "113.96255000",
      "fare": "9.0",
      "fareHoliday": "15.6",
      "someDepartureObserveOnly": 0
    },
    {
      "stopId": "19",
      "stopName_c": "長沙上村",
      "stopName_s": "长沙上村",
      "stopName_e": "Cheung Sha Sheung Tsuen",
      "stopLocation_c": "嶼南道",
      "stopLocation_s": "屿南道",
      "stopLocation_e": "South Lantau Road",
      "latitude": "22.23523800",
      "longitude": "113.96173900",
      "fare": "9.0",
      "fareHoliday": "15.6",
      "someDepartureObserveOnly": 0
    },
    {
      "stopId": "20",
      "stopName_c": "長沙警署",
      "stopName_s": "长沙警署",
      "stopName_e": "Cheung Sha Police Headquarters",
      "stopLocation_c": "嶼南道",
      "stopLocation_s": "屿南道",
      "stopLocation_e": "South Lantau Road",
      "latitude": "22.23377200",
      "longitude": "113.96021100",
      "fare": "9.0",
      "fareHoliday": "15.6",
      "someDepartureObserveOnly": 0
    },
    {
      "stopId": "21",
      "stopName_c": "長沙下村",
      "stopName_s": "长沙下村",
      "stopName_e": "Cheung Sha Ha Tsuen",
      "stopLocation_c": "嶼南道",
      "stopLocation_s": "屿南道",
      "stopLocation_e": "South Lantau Road",
      "latitude": "22.23478700",
      "longitude": "113.95723200",
      "fare": "9.0",
      "fareHoliday": "15.6",
      "someDepartureObserveOnly": 0
    },
    {
      "stopId": "22",
      "stopName_c": "長沙消防局",
      "stopName_s": "长沙消防局",
      "stopName_e": "Cheung Sha Fire Station",
      "stopLocation_c": "嶼南道",
      "stopLocation_s": "屿南道",
      "stopLocation_e": "South Lantau Road",
      "latitude": "22.23663200",
      "longitude": "113.95434900",
      "fare": "9.0",
      "fareHoliday": "15.6",
      "someDepartureObserveOnly": 0
    },
    {
      "stopId": "23",
      "stopName_c": "麗濱別墅",
      "stopName_s": "丽滨别墅",
      "stopName_e": "Leyburn Villas",
      "stopLocation_c": "嶼南道",
      "stopLocation_s": "屿南道",
      "stopLocation_e": "South Lantau Road",
      "latitude": "22.23621700",
      "longitude": "113.95191600",
      "fare": "9.0",
      "fareHoliday": "15.6",
      "someDepartureObserveOnly": 0
    },
    {
      "stopId": "24",
      "stopName_c": "蝶崗",
      "stopName_s": "蝶岗",
      "stopName_e": "Butterfly Crest",
      "stopLocation_c": "嶼南道",
      "stopLocation_s": "屿南道",
      "stopLocation_e": "South Lantau Road",
      "latitude": "22.23454000",
      "longitude": "113.94884100",
      "fare": "9.0",
      "fareHoliday": "15.6",
      "someDepartureObserveOnly": 0
    },
    {
      "stopId": "25",
      "stopName_c": "長沙大橋",
      "stopName_s": "长沙大桥",
      "stopName_e": "Cheung Sha Bridge",
      "stopLocation_c": "嶼南道",
      "stopLocation_s": "屿南道",
      "stopLocation_e": "South Lantau Road",
      "latitude": "22.23338900",
      "longitude": "113.94697700",
      "fare": "9.0",
      "fareHoliday": "15.6",
      "someDepartureObserveOnly": 0
    },
    {
      "stopId": "26",
      "stopName_c": "上長沙泳灘",
      "stopName_s": "上长沙泳滩",
      "stopName_e": "Upper Cheung Sha Beach",
      "stopLocation_c": "嶼南道",
      "stopLocation_s": "屿南道",
      "stopLocation_e": "South Lantau Road",
      "latitude": "22.23087700",
      "longitude": "113.94152500",
      "fare": "9.0",
      "fareHoliday": "15.6",
      "someDepartureObserveOnly": 0
    },
    {
      "stopId": "27",
      "stopName_c": "塘福海灘",
      "stopName_s": "塘福海滩",
      "stopName_e": "Tong Fuk Beach",
      "stopLocation_c": "嶼南道",
      "stopLocation_s": "屿南道",
      "stopLocation_e": "South Lantau Road",
      "latitude": "22.22850900",
      "longitude": "113.93533900",
      "fare": "6.3",
      "fareHoliday": "12.5",
      "someDepartureObserveOnly": 0
    },
    {
      "stopId": "28",
      "stopName_c": "塘福村",
      "stopName_s": "塘福村",
      "stopName_e": "Tong Fuk Village",
      "stopLocation_c": "嶼南道",
      "stopLocation_s": "屿南道",
      "stopLocation_e": "South Lantau Road",
      "latitude": "22.22756500",
      "longitude": "113.93270600",
      "fare": "6.3",
      "fareHoliday": "12.5",
      "someDepartureObserveOnly": 0
    },
    {
      "stopId": "32",
      "stopName_c": "塘福懲教所",
      "stopName_s": "塘福惩教所",
      "stopName_e": "Tong Fuk Correctional Institution",
      "stopLocation_c": "嶼南道",
      "stopLocation_s": "屿南道",
      "stopLocation_e": "South Lantau Road",
      "latitude": "22.22876400",
      "longitude": "113.92608400",
      "fare": "6.3",
      "fareHoliday": "12.5",
      "someDepartureObserveOnly": 1
    },
    {
      "stopId": "30",
      "stopName_c": "麻埔坪村",
      "stopName_s": "麻埔坪村",
      "stopName_e": "Ma Po Ping Village",
      "stopLocation_c": "麻埔坪道",
      "stopLocation_s": "麻埔坪道",
      "stopLocation_e": "Ma Po Ping Road",
      "latitude": "22.22992600",
      "longitude": "113.92805000",
      "fare": "6.3",
      "fareHoliday": "12.5",
      "someDepartureObserveOnly": 1
    },
    {
      "stopId": "31",
      "stopName_c": "麻埔坪道口",
      "stopName_s": "麻埔坪道口",
      "stopName_e": "Ma Po Ping Road Junction",
      "stopLocation_c": "嶼南道",
      "stopLocation_s": "屿南道",
      "stopLocation_e": "South Lantau Road",
      "latitude": "22.22601800",
      "longitude": "113.92949500",
      "fare": "6.3",
      "fareHoliday": "12.5",
      "someDepartureObserveOnly": 0
    },
    {
      "stopId": "178",
      "stopName_c": "南大嶼山海底電纜站",
      "stopName_s": "南大屿山海底电缆站",
      "stopName_e": "South Lantau Sea Cable Station",
      "stopLocation_c": "嶼南道",
      "stopLocation_s": "屿南道",
      "stopLocation_e": "South Lantau Road",
      "latitude": "22.22527200",
      "longitude": "113.92866100",
      "fare": "6.3",
      "fareHoliday": "12.5",
      "someDepartureObserveOnly": 0
    },
    {
      "stopId": "33",
      "stopName_c": "上橫壟",
      "stopName_s": "上横垄",
      "stopName_e": "Upper Wan Lung",
      "stopLocation_c": "嶼南道",
      "stopLocation_s": "屿南道",
      "stopLocation_e": "South Lantau Road",
      "latitude": "22.22334800",
      "longitude": "113.92062400",
      "fare": "6.3",
      "fareHoliday": "12.5",
      "someDepartureObserveOnly": 0
    },
    {
      "stopId": "34",
      "stopName_c": "下橫壟",
      "stopName_s": "下横垄",
      "stopName_e": "Lower Wan Lung",
      "stopLocation_c": "嶼南道",
      "stopLocation_s": "屿南道",
      "stopLocation_e": "South Lantau Road",
      "latitude": "22.22230500",
      "longitude": "113.91974100",
      "fare": "6.3",
      "fareHoliday": "12.5",
      "someDepartureObserveOnly": 0
    },
    {
      "stopId": "35",
      "stopName_c": "水口村(東)",
      "stopName_s": "水口村(东)",
      "stopName_e": "Shui Hau Village (East)",
      "stopLocation_c": "嶼南道",
      "stopLocation_s": "屿南道",
      "stopLocation_e": "South Lantau Road",
      "latitude": "22.22156500",
      "longitude": "113.91605900",
      "fare": "6.3",
      "fareHoliday": "12.5",
      "someDepartureObserveOnly": 0
    },
    {
      "stopId": "36",
      "stopName_c": "水口村",
      "stopName_s": "水口村",
      "stopName_e": "Shui Hau Village",
      "stopLocation_c": "嶼南道",
      "stopLocation_s": "屿南道",
      "stopLocation_e": "South Lantau Road",
      "latitude": "22.22098931",
      "longitude": "113.91431800",
      "fare": "6.3",
      "fareHoliday": "12.5",
      "someDepartureObserveOnly": 0
    },
    {
      "stopId": "37",
      "stopName_c": "四眼馬",
      "stopName_s": "四眼马",
      "stopName_e": "Four-Eye Ma",
      "stopLocation_c": "嶼南道",
      "stopLocation_s": "屿南道",
      "stopLocation_e": "South Lantau Road",
      "latitude": "22.22191300",
      "longitude": "113.91037000",
      "fare": "6.3",
      "fareHoliday": "12.5",
      "someDepartureObserveOnly": 0
    },
    {
      "stopId": "38",
      "stopName_c": "水口直升機場",
      "stopName_s": "水口直升机场",
      "stopName_e": "Shui Hau Helicopter Landing Field",
      "stopLocation_c": "嶼南道",
      "stopLocation_s": "屿南道",
      "stopLocation_e": "South Lantau Road",
      "latitude": "22.22353200",
      "longitude": "113.90806300",
      "fare": "6.3",
      "fareHoliday": "12.5",
      "someDepartureObserveOnly": 0
    },
    {
      "stopId": "39",
      "stopName_c": "石壁警崗",
      "stopName_s": "石壁警岗",
      "stopName_e": "Shek Pik Police Station",
      "stopLocation_c": "嶼南道",
      "stopLocation_s": "屿南道",
      "stopLocation_e": "South Lantau Road",
      "latitude": "22.22586200",
      "longitude": "113.89772000",
      "fare": "4.8",
      "fareHoliday": "7.1",
      "someDepartureObserveOnly": 0
    },
    {
      "stopId": "40",
      "stopName_c": "沙咀懲教所",
      "stopName_s": "沙咀惩教所",
      "stopName_e": "Sha Tsui Detention Centre",
      "stopLocation_c": "石壁水塘道",
      "stopLocation_s": "石壁水塘道",
      "stopLocation_e": "Shek Pik Reservoir Road",
      "latitude": "22.22496900",
      "longitude": "113.89348700",
      "fare": "4.8",
      "fareHoliday": "7.1",
      "someDepartureObserveOnly": 1
    },
    {
      "stopId": "41",
      "stopName_c": "沙咀",
      "stopName_s": "沙咀",
      "stopName_e": "Sha Tsui",
      "stopLocation_c": "姜山道",
      "stopLocation_s": "姜山道",
      "stopLocation_e": "Keung Shan Road",
      "latitude": "22.22832800",
      "longitude": "113.89060000",
      "fare": "4.8",
      "fareHoliday": "7.1",
      "someDepartureObserveOnly": 0
    },
    {
      "stopId": "42",
      "stopName_c": "石壁坳引水道通道",
      "stopName_s": "石壁坳引水道通道",
      "stopName_e": "Shek Pik Au W.W.O. Access Road",
      "stopLocation_c": "姜山道",
      "stopLocation_s": "姜山道",
      "stopLocation_e": "Keung Shan Road",
      "latitude": "22.23945100",
      "longitude": "113.89369700",
      "fare": "4.8",
      "fareHoliday": "7.1",
      "someDepartureObserveOnly": 0
    },
    {
      "stopId": "58",
      "stopName_c": "深屈道",
      "stopName_s": "深屈道",
      "stopName_e": "Sham Wat Road",
      "stopLocation_c": "深屈道",
      "stopLocation_s": "深屈道",
      "stopLocation_e": "Sham Wat Road",
      "latitude": "22.24505400",
      "longitude": "113.89119300",
      "fare": "2.7",
      "fareHoliday": "5.4",
      "someDepartureObserveOnly": 0
    },
    {
      "stopId": "44",
      "stopName_c": "法華苑",
      "stopName_s": "法华苑",
      "stopName_e": "Fat Hwa Yuen",
      "stopLocation_c": "姜山道",
      "stopLocation_s": "姜山道",
      "stopLocation_e": "Keung Shan Road",
      "latitude": "22.24612200",
      "longitude": "113.88904200",
      "fare": "2.7",
      "fareHoliday": "5.4",
      "someDepartureObserveOnly": 0
    },
    {
      "stopId": "45",
      "stopName_c": "三緣精舍",
      "stopName_s": "三缘精舍",
      "stopName_e": "Sam Yuen Ching Shea",
      "stopLocation_c": "姜山道",
      "stopLocation_s": "姜山道",
      "stopLocation_e": "Keung Shan Road",
      "latitude": "22.24643500",
      "longitude": "113.88624200",
      "fare": "2.7",
      "fareHoliday": "5.4",
      "someDepartureObserveOnly": 0
    },
    {
      "stopId": "46",
      "stopName_c": "成輝果園",
      "stopName_s": "成辉果园",
      "stopName_e": "Shing Fai Orchard",
      "stopLocation_c": "姜山道",
      "stopLocation_s": "姜山道",
      "stopLocation_e": "Keung Shan Road",
      "latitude": "22.24382000",
      "longitude": "113.88420900",
      "fare": "2.7",
      "fareHoliday": "5.4",
      "someDepartureObserveOnly": 0
    },
    {
      "stopId": "47",
      "stopName_c": "觀音寺",
      "stopName_s": "观音寺",
      "stopName_e": "Kwun Yam Monastery",
      "stopLocation_c": "姜山道",
      "stopLocation_s": "姜山道",
      "stopLocation_e": "Keung Shan Road",
      "latitude": "22.24225600",
      "longitude": "113.88299100",
      "fare": "2.7",
      "fareHoliday": "5.4",
      "someDepartureObserveOnly": 0
    },
    {
      "stopId": "48",
      "stopName_c": "龍仔",
      "stopName_s": "龙仔",
      "stopName_e": "Lung Chai",
      "stopLocation_c": "大澳道",
      "stopLocation_s": "大澳道",
      "stopLocation_e": "Tai O Road",
      "latitude": "22.24081600",
      "longitude": "113.88102200",
      "fare": "2.7",
      "fareHoliday": "5.4",
      "someDepartureObserveOnly": 0
    },
    {
      "stopId": "49",
      "stopName_c": "羌山管理站",
      "stopName_s": "羌山管理站",
      "stopName_e": "Keung Shan Management Centre",
      "stopLocation_c": "大澳道",
      "stopLocation_s": "大澳道",
      "stopLocation_e": "Tai O Road",
      "latitude": "22.24203200",
      "longitude": "113.87882300",
      "fare": "2.7",
      "fareHoliday": "5.4",
      "someDepartureObserveOnly": 0
    },
    {
      "stopId": "84",
      "stopName_c": "新鳳村",
      "stopName_s": "新凤村",
      "stopName_e": "Sun Fung Tsuen",
      "stopLocation_c": "大澳道",
      "stopLocation_s": "大澳道",
      "stopLocation_e": "Tai O Road",
      "latitude": "22.24357100",
      "longitude": "113.87697200",
      "fare": "2.7",
      "fareHoliday": "5.4",
      "someDepartureObserveOnly": 0
    },
    {
      "stopId": "51",
      "stopName_c": "靈隱寺",
      "stopName_s": "灵隐寺",
      "stopName_e": "Ling Yan Monastery",
      "stopLocation_c": "大澳道",
      "stopLocation_s": "大澳道",
      "stopLocation_e": "Tai O Road",
      "latitude": "22.24401800",
      "longitude": "113.87500900",
      "fare": "2.7",
      "fareHoliday": "5.4",
      "someDepartureObserveOnly": 0
    },
    {
      "stopId": "52",
      "stopName_c": "坑尾",
      "stopName_s": "坑尾",
      "stopName_e": "Hang Mei",
      "stopLocation_c": "大澳道",
      "stopLocation_s": "大澳道",
      "stopLocation_e": "Tai O Road",
      "latitude": "22.25065600",
      "longitude": "113.86906200",
      "fare": "2.7",
      "fareHoliday": "5.4",
      "someDepartureObserveOnly": 0
    },
    {
      "stopId": "53",
      "stopName_c": "佛教筏可紀念中學",
      "stopName_s": "佛教筏可纪念中学",
      "stopName_e": "Buddhist Fat Ho Memorial College",
      "stopLocation_c": "大澳道",
      "stopLocation_s": "大澳道",
      "stopLocation_e": "Tai O Road",
      "latitude": "22.25203300",
      "longitude": "113.86698800",
      "fare": "2.7",
      "fareHoliday": "5.4",
      "someDepartureObserveOnly": 0
    },
    {
      "stopId": "54",
      "stopName_c": "龍田邨",
      "stopName_s": "龙田邨",
      "stopName_e": "Lung Tin Estate",
      "stopLocation_c": "大澳道",
      "stopLocation_s": "大澳道",
      "stopLocation_e": "Tai O Road",
      "latitude": "22.25232600",
      "longitude": "113.86497600",
      "fare": "2.7",
      "fareHoliday": "5.4",
      "someDepartureObserveOnly": 0
    },
    {
      "stopId": "55",
      "stopName_c": "大澳",
      "stopName_s": "大澳",
      "stopName_e": "Tai O",
      "stopLocation_c": "大澳道",
      "stopLocation_s": "大澳道",
      "stopLocation_e": "Tai O Road",
      "latitude": "22.25278300",
      "longitude": "113.86216000",
      "fare": "0.0",
      "fareHoliday": "0.0",
      "someDepartureObserveOnly": 0
    }
  ]
}