{
  "stops": [
    {
      "stopId": "328",
      "stopName_c": "迪士尼樂園",
      "stopName_s": "迪士尼乐园",
      "stopName_e": "Disneyland",
      "stopLocation_c": "幻想道",
      "stopLocation_s": "幻想道",
      "stopLocation_e": "Fantasy Road",
      "latitude": "22.31635600",
      "longitude": "114.04573200",
      "fare": "10.7",
      "fareHoliday": "10.7",
      "someDepartureObserveOnly": 0
    },
    {
      "stopId": "293",
      "stopName_c": "小蠔灣",
      "stopName_s": "小蚝湾",
      "stopName_e": "Siu Ho Wan",
      "stopLocation_c": "深豐路",
      "stopLocation_s": "深丰路",
      "stopLocation_e": "Shum Fung Road",
      "latitude": "22.31551900",
      "longitude": "113.99797500",
      "fare": "5.1",
      "fareHoliday": "5.1",
      "someDepartureObserveOnly": 0
    },
    {
      "stopId": "96",
      "stopName_c": "小蠔灣濾水廠",
      "stopName_s": "小蚝湾滤水厂",
      "stopName_e": "Siu Ho Wan Water Treatment Works",
      "stopLocation_c": "翔東路",
      "stopLocation_s": "翔东路",
      "stopLocation_e": "Cheung Tung Road",
      "latitude": "22.31359500",
      "longitude": "113.99573400",
      "fare": "5.1",
      "fareHoliday": "5.1",
      "someDepartureObserveOnly": 0
    },
    {
      "stopId": "97",
      "stopName_c": "愉景灣隧道",
      "stopName_s": "愉景湾隧道",
      "stopName_e": "Discovery Bay Tunnel",
      "stopLocation_c": "翔東路",
      "stopLocation_s": "翔东路",
      "stopLocation_e": "Cheung Tung Road",
      "latitude": "22.31002200",
      "longitude": "113.99058400",
      "fare": "5.1",
      "fareHoliday": "5.1",
      "someDepartureObserveOnly": 0
    },
    {
      "stopId": "294",
      "stopName_c": "政府維修廠",
      "stopName_s": "政府维修厂",
      "stopName_e": "Government Maintenance Depot",
      "stopLocation_c": "翔東路",
      "stopLocation_s": "翔东路",
      "stopLocation_e": "Cheung Tung Road",
      "latitude": "22.30928300",
      "longitude": "113.98925400",
      "fare": "5.1",
      "fareHoliday": "5.1",
      "someDepartureObserveOnly": 0
    },
    {
      "stopId": "99",
      "stopName_c": "白芒",
      "stopName_s": "白芒",
      "stopName_e": "Pak Mong",
      "stopLocation_c": "翔東路",
      "stopLocation_s": "翔东路",
      "stopLocation_e": "Cheung Tung Road",
      "latitude": "22.29796400",
      "longitude": "113.96758000",
      "fare": "5.1",
      "fareHoliday": "5.1",
      "someDepartureObserveOnly": 0
    },
    {
      "stopId": "80",
      "stopName_c": "富東廣場",
      "stopName_s": "富东广场",
      "stopName_e": "Fu Tung Plaza",
      "stopLocation_c": "達東路",
      "stopLocation_s": "达东路",
      "stopLocation_e": "Tat Tung Road",
      "latitude": "22.28887000",
      "longitude": "113.94210500",
      "fare": "5.1",
      "fareHoliday": "5.1",
      "someDepartureObserveOnly": 0
    },
    {
      "stopId": "78",
      "stopName_c": "東涌纜車站",
      "stopName_s": "东涌缆车站",
      "stopName_e": "Tung Chung Cable Car Terminal",
      "stopLocation_c": "達東路",
      "stopLocation_s": "达东路",
      "stopLocation_e": "Tat Tung Road",
      "latitude": "22.28930100",
      "longitude": "113.93873300",
      "fare": "5.1",
      "fareHoliday": "5.1",
      "someDepartureObserveOnly": 0
    },
    {
      "stopId": "318",
      "stopName_c": "東涌達東路巴士總站",
      "stopName_s": "东涌达东路巴士总站",
      "stopName_e": "Tung Chung Tat Tung Road Bus Terminus",
      "stopLocation_c": "達東路",
      "stopLocation_s": "达东路",
      "stopLocation_e": "Tat Tung Road",
      "latitude": "22.29058000",
      "longitude": "113.93935200",
      "fare": "0.0",
      "fareHoliday": "0.0",
      "someDepartureObserveOnly": 0
    }
  ]
}