{
  "stops": [
    {
      "stopId": "104",
      "stopName_c": "逸東邨雍逸樓",
      "stopName_s": "逸东邨雍逸楼",
      "stopName_e": "Yung Yat House, Yat Tung Estate",
      "stopLocation_c": "裕東路",
      "stopLocation_s": "裕东路",
      "stopLocation_e": "Yu Tung Road",
      "latitude": "22.27959200",
      "longitude": "113.93671200",
      "fare": "3.8",
      "fareHoliday": "0.0",
      "someDepartureObserveOnly": 0
    },
    {
      "stopId": "185",
      "stopName_c": "北大嶼山醫院(北行), 逸東邨美逸樓",
      "stopName_s": "北大屿山医院(北行), 逸东邨美逸楼",
      "stopName_e": "North Lantau Hospital (North Bound), Mei Yat House Yat Tung Estate",
      "stopLocation_c": "松仁路",
      "stopLocation_s": "松仁路",
      "stopLocation_e": "Chung Yan Road",
      "latitude": "22.28129500",
      "longitude": "113.93882200",
      "fare": "3.8",
      "fareHoliday": "0.0",
      "someDepartureObserveOnly": 0
    },
    {
      "stopId": "76",
      "stopName_c": "北大嶼山醫院(南行)",
      "stopName_s": "北大屿山医院(南行)",
      "stopName_e": "North Lantau Hospital (South Bound)",
      "stopLocation_c": "松仁路",
      "stopLocation_s": "松仁路",
      "stopLocation_e": "Chung Yan Road",
      "latitude": "22.28186100",
      "longitude": "113.93880300",
      "fare": "3.8",
      "fareHoliday": "0.0",
      "someDepartureObserveOnly": 0
    },
    {
      "stopId": "77",
      "stopName_c": "東涌消防局",
      "stopName_s": "东涌消防局",
      "stopName_e": "Tung Chung Fire Station",
      "stopLocation_c": "順東路",
      "stopLocation_s": "顺东路",
      "stopLocation_e": "Shun Tung Road",
      "latitude": "22.28603000",
      "longitude": "113.94105700",
      "fare": "3.8",
      "fareHoliday": "0.0",
      "someDepartureObserveOnly": 0
    },
    {
      "stopId": "78",
      "stopName_c": "東涌纜車站",
      "stopName_s": "东涌缆车站",
      "stopName_e": "Tung Chung Cable Car Terminal",
      "stopLocation_c": "達東路",
      "stopLocation_s": "达东路",
      "stopLocation_e": "Tat Tung Road",
      "latitude": "22.28930100",
      "longitude": "113.93873300",
      "fare": "3.8",
      "fareHoliday": "0.0",
      "someDepartureObserveOnly": 0
    },
    {
      "stopId": "105",
      "stopName_c": "東涌港鐵站",
      "stopName_s": "东涌港铁站",
      "stopName_e": "Tung Chung MTR Station",
      "stopLocation_c": "達東路",
      "stopLocation_s": "达东路",
      "stopLocation_e": "Tat Tung Road",
      "latitude": "22.28961300",
      "longitude": "113.94021000",
      "fare": "3.8",
      "fareHoliday": "0.0",
      "someDepartureObserveOnly": 0
    },
    {
      "stopId": "80",
      "stopName_c": "富東廣場",
      "stopName_s": "富东广场",
      "stopName_e": "Fu Tung Plaza",
      "stopLocation_c": "達東路",
      "stopLocation_s": "达东路",
      "stopLocation_e": "Tat Tung Road",
      "latitude": "22.28887000",
      "longitude": "113.94210500",
      "fare": "3.8",
      "fareHoliday": "0.0",
      "someDepartureObserveOnly": 0
    },
    {
      "stopId": "81",
      "stopName_c": "裕東苑",
      "stopName_s": "裕东苑",
      "stopName_e": "Yu Tung Court",
      "stopLocation_c": "順東路",
      "stopLocation_s": "顺东路",
      "stopLocation_e": "Shun Tung Road",
      "latitude": "22.28607700",
      "longitude": "113.94160300",
      "fare": "3.8",
      "fareHoliday": "0.0",
      "someDepartureObserveOnly": 0
    },
    {
      "stopId": "101",
      "stopName_c": "松逸街",
      "stopName_s": "松逸街",
      "stopName_e": "Chung Yat Street",
      "stopLocation_c": "松逸街",
      "stopLocation_s": "松逸街",
      "stopLocation_e": "Chung Yat Street",
      "latitude": "22.27616400",
      "longitude": "113.93182300",
      "fare": "3.8",
      "fareHoliday": "0.0",
      "someDepartureObserveOnly": 0
    },
    {
      "stopId": "102",
      "stopName_c": "松滿路",
      "stopName_s": "松满路",
      "stopName_e": "Chung Mun Road",
      "stopLocation_c": "松滿路",
      "stopLocation_s": "松满路",
      "stopLocation_e": "Chung Mun Road",
      "latitude": "22.27720100",
      "longitude": "113.93170000",
      "fare": "3.8",
      "fareHoliday": "0.0",
      "someDepartureObserveOnly": 0
    },
    {
      "stopId": "103",
      "stopName_c": "逸東邨福逸樓",
      "stopName_s": "逸东邨福逸楼",
      "stopName_e": "Fuk Yat House, Yat Tung Estate",
      "stopLocation_c": "裕東路",
      "stopLocation_s": "裕东路",
      "stopLocation_e": "Yu Tung Road",
      "latitude": "22.27921600",
      "longitude": "113.93465100",
      "fare": "3.8",
      "fareHoliday": "0.0",
      "someDepartureObserveOnly": 0
    },
    {
      "stopId": "306",
      "stopName_c": "逸東邨雍逸樓",
      "stopName_s": "逸东邨雍逸楼",
      "stopName_e": "Yung Yat House, Yat Tung Estate",
      "stopLocation_c": "裕東路",
      "stopLocation_s": "裕东路",
      "stopLocation_e": "Yu Tung Road",
      "latitude": "22.27974400",
      "longitude": "113.93699500",
      "fare": "0.0",
      "fareHoliday": "0.0",
      "someDepartureObserveOnly": 0
    }
  ]
}