{
  "stops": [
    {
      "stopId": "152",
      "stopName_c": "深圳灣口岸",
      "stopName_s": "深圳湾口岸",
      "stopName_e": "Shenzhen Bay Port",
      "stopLocation_c": "深圳灣口岸",
      "stopLocation_s": "深圳湾口岸",
      "stopLocation_e": "Shenzhen Bay Port",
      "latitude": "22.49743300",
      "longitude": "113.95050900",
      "fare": "10.3",
      "fareHoliday": "10.3",
      "someDepartureObserveOnly": 0
    },
    {
      "stopId": "170",
      "stopName_c": "天盛苑",
      "stopName_s": "天盛苑",
      "stopName_e": "Tin Shing Court",
      "stopLocation_c": "屏廈路",
      "stopLocation_s": "屏厦路",
      "stopLocation_e": "Ping Ha Road",
      "latitude": "22.44698800",
      "longitude": "114.00279400",
      "fare": "4.2",
      "fareHoliday": "4.2",
      "someDepartureObserveOnly": 0
    },
    {
      "stopId": "171",
      "stopName_c": "天水圍警署",
      "stopName_s": "天水围警署",
      "stopName_e": "Tin Shui Wai Police Station",
      "stopLocation_c": "天耀路",
      "stopLocation_s": "天耀路",
      "stopLocation_e": "Tin Yiu Road",
      "latitude": "22.45017100",
      "longitude": "114.00250400",
      "fare": "4.2",
      "fareHoliday": "4.2",
      "someDepartureObserveOnly": 0
    },
    {
      "stopId": "172",
      "stopName_c": "嘉湖山莊賞湖居",
      "stopName_s": "嘉湖山庄赏湖居",
      "stopName_e": "Sherwood Court, Kingswood Villas",
      "stopLocation_c": "天湖路",
      "stopLocation_s": "天湖路",
      "stopLocation_e": "Tin Wu Road",
      "latitude": "22.45255000",
      "longitude": "114.00216900",
      "fare": "4.2",
      "fareHoliday": "4.2",
      "someDepartureObserveOnly": 0
    },
    {
      "stopId": "167",
      "stopName_c": "天水圍公園",
      "stopName_s": "天水围公园",
      "stopName_e": "Tin Shui Wai Park",
      "stopLocation_c": "天瑞路",
      "stopLocation_s": "天瑞路",
      "stopLocation_e": "Tin Shui Road",
      "latitude": "22.45455700",
      "longitude": "114.00254300",
      "fare": "4.2",
      "fareHoliday": "4.2",
      "someDepartureObserveOnly": 0
    },
    {
      "stopId": "166",
      "stopName_c": "天瑞邨",
      "stopName_s": "天瑞邨",
      "stopName_e": "Tin Shui Estate",
      "stopLocation_c": "天瑞路",
      "stopLocation_s": "天瑞路",
      "stopLocation_e": "Tin Shui Road",
      "latitude": "22.45699400",
      "longitude": "113.99885700",
      "fare": "4.2",
      "fareHoliday": "4.2",
      "someDepartureObserveOnly": 0
    },
    {
      "stopId": "173",
      "stopName_c": "天頌苑",
      "stopName_s": "天颂苑",
      "stopName_e": "Tin Chung Court",
      "stopLocation_c": "天榮路",
      "stopLocation_s": "天荣路",
      "stopLocation_e": "Tin Wing Road",
      "latitude": "22.45986400",
      "longitude": "114.00007900",
      "fare": "4.2",
      "fareHoliday": "4.2",
      "someDepartureObserveOnly": 0
    },
    {
      "stopId": "174",
      "stopName_c": "嘉湖山莊麗湖居",
      "stopName_s": "嘉湖山庄丽湖居",
      "stopName_e": "Lynwood Court, Kingswood Villas",
      "stopLocation_c": "天城路",
      "stopLocation_s": "天城路",
      "stopLocation_e": "Tin Shing Road",
      "latitude": "22.45893400",
      "longitude": "114.00359200",
      "fare": "4.2",
      "fareHoliday": "4.2",
      "someDepartureObserveOnly": 0
    },
    {
      "stopId": "175",
      "stopName_c": "嘉湖山莊景湖居",
      "stopName_s": "嘉湖山庄景湖居",
      "stopName_e": "Kenswood Court, Kingswood Villas",
      "stopLocation_c": "天城路",
      "stopLocation_s": "天城路",
      "stopLocation_e": "Tin Shing Road",
      "latitude": "22.45736400",
      "longitude": "114.00579700",
      "fare": "4.2",
      "fareHoliday": "4.2",
      "someDepartureObserveOnly": 0
    },
    {
      "stopId": "162",
      "stopName_c": "天水圍 (天慈邨)",
      "stopName_s": "天水围 (天慈邨)",
      "stopName_e": "Tin Shui Wai (Tin Tsz Estate)",
      "stopLocation_c": "天喜街",
      "stopLocation_s": "天喜街",
      "stopLocation_e": "Tin Hei Street",
      "latitude": "22.45353600",
      "longitude": "114.00711100",
      "fare": "0.0",
      "fareHoliday": "0.0",
      "someDepartureObserveOnly": 0
    }
  ]
}