{
  "stops": [
    {
      "stopId": "278",
      "stopName_c": "東涌站巴士總站",
      "stopName_s": "东涌站巴士总站",
      "stopName_e": "Tung Chung Station Bus Terminus",
      "stopLocation_c": "達東路",
      "stopLocation_s": "达东路",
      "stopLocation_e": "Tat Tung Road",
      "latitude": "22.28986200",
      "longitude": "113.93961600",
      "fare": "12.0",
      "fareHoliday": "18.8",
      "someDepartureObserveOnly": 0
    },
    {
      "stopId": "80",
      "stopName_c": "富東廣場",
      "stopName_s": "富东广场",
      "stopName_e": "Fu Tung Plaza",
      "stopLocation_c": "達東路",
      "stopLocation_s": "达东路",
      "stopLocation_e": "Tat Tung Road",
      "latitude": "22.28887000",
      "longitude": "113.94210500",
      "fare": "12.0",
      "fareHoliday": "18.8",
      "someDepartureObserveOnly": 0
    },
    {
      "stopId": "81",
      "stopName_c": "裕東苑",
      "stopName_s": "裕东苑",
      "stopName_e": "Yu Tung Court",
      "stopLocation_c": "順東路",
      "stopLocation_s": "顺东路",
      "stopLocation_e": "Shun Tung Road",
      "latitude": "22.28607700",
      "longitude": "113.94160300",
      "fare": "12.0",
      "fareHoliday": "18.8",
      "someDepartureObserveOnly": 0
    },
    {
      "stopId": "185",
      "stopName_c": "北大嶼山醫院(北行), 逸東邨美逸樓",
      "stopName_s": "北大屿山医院(北行), 逸东邨美逸楼",
      "stopName_e": "North Lantau Hospital (North Bound), Mei Yat House Yat Tung Estate",
      "stopLocation_c": "松仁路",
      "stopLocation_s": "松仁路",
      "stopLocation_e": "Chung Yan Road",
      "latitude": "22.28129500",
      "longitude": "113.93882200",
      "fare": "12.0",
      "fareHoliday": "18.8",
      "someDepartureObserveOnly": 1
    },
    {
      "stopId": "76",
      "stopName_c": "北大嶼山醫院(南行)",
      "stopName_s": "北大屿山医院(南行)",
      "stopName_e": "North Lantau Hospital (South Bound)",
      "stopLocation_c": "松仁路",
      "stopLocation_s": "松仁路",
      "stopLocation_e": "Chung Yan Road",
      "latitude": "22.28186100",
      "longitude": "113.93880300",
      "fare": "12.0",
      "fareHoliday": "18.8",
      "someDepartureObserveOnly": 1
    },
    {
      "stopId": "338",
      "stopName_c": "裕泰苑(松仁路)",
      "stopName_s": "裕泰苑(松仁路)",
      "stopName_e": "Yu Tai Court (Chung Yan Road)",
      "stopLocation_c": "松仁路",
      "stopLocation_s": "松仁路",
      "stopLocation_e": "Chung Yan Road",
      "latitude": "22.28019400",
      "longitude": "113.94030600",
      "fare": "12.0",
      "fareHoliday": "18.8",
      "someDepartureObserveOnly": 0
    },
    {
      "stopId": "94",
      "stopName_c": "東涌鄉事委員會",
      "stopName_s": "东涌乡事委员会",
      "stopName_e": "Tung Chung Rural Committee Office",
      "stopLocation_c": "東涌道",
      "stopLocation_s": "东涌道",
      "stopLocation_e": "Tung Chung Road",
      "latitude": "22.27893600",
      "longitude": "113.93879500",
      "fare": "12.0",
      "fareHoliday": "18.8",
      "someDepartureObserveOnly": 0
    },
    {
      "stopId": "279",
      "stopName_c": "上嶺皮",
      "stopName_s": "上岭皮",
      "stopName_e": "Sheung Ling Pei",
      "stopLocation_c": "東涌道",
      "stopLocation_s": "东涌道",
      "stopLocation_e": "Tung Chung Road",
      "latitude": "22.27879200",
      "longitude": "113.93714800",
      "fare": "12.0",
      "fareHoliday": "18.8",
      "someDepartureObserveOnly": 0
    },
    {
      "stopId": "280",
      "stopName_c": "下嶺皮",
      "stopName_s": "下岭皮",
      "stopName_e": "Ha Ling Pei",
      "stopLocation_c": "東涌道",
      "stopLocation_s": "东涌道",
      "stopLocation_e": "Tung Chung Road",
      "latitude": "22.27851200",
      "longitude": "113.93542300",
      "fare": "12.0",
      "fareHoliday": "18.8",
      "someDepartureObserveOnly": 0
    },
    {
      "stopId": "282",
      "stopName_c": "黃家圍",
      "stopName_s": "黄家围",
      "stopName_e": "Wong Ka Wai",
      "stopLocation_c": "東涌道",
      "stopLocation_s": "东涌道",
      "stopLocation_e": "Tung Chung Road",
      "latitude": "22.27703800",
      "longitude": "113.93397500",
      "fare": "12.0",
      "fareHoliday": "18.8",
      "someDepartureObserveOnly": 0
    },
    {
      "stopId": "283",
      "stopName_c": "龍井頭",
      "stopName_s": "龙井头",
      "stopName_e": "Lung Tseng Tau",
      "stopLocation_c": "東涌道",
      "stopLocation_s": "东涌道",
      "stopLocation_e": "Tung Chung Road",
      "latitude": "22.27570700",
      "longitude": "113.93370700",
      "fare": "12.0",
      "fareHoliday": "18.8",
      "someDepartureObserveOnly": 0
    },
    {
      "stopId": "284",
      "stopName_c": "石門甲道",
      "stopName_s": "石门甲道",
      "stopName_e": "Shek Mun Kap Road",
      "stopLocation_c": "東涌道",
      "stopLocation_s": "东涌道",
      "stopLocation_e": "Tung Chung Road",
      "latitude": "22.27047000",
      "longitude": "113.93446500",
      "fare": "12.0",
      "fareHoliday": "18.8",
      "someDepartureObserveOnly": 0
    },
    {
      "stopId": "286",
      "stopName_c": "十八區墳場",
      "stopName_s": "十八区坟场",
      "stopName_e": "Cemetery Area No. 18",
      "stopLocation_c": "東涌道",
      "stopLocation_s": "东涌道",
      "stopLocation_e": "Tung Chung Road",
      "latitude": "22.26567800",
      "longitude": "113.93674000",
      "fare": "12.0",
      "fareHoliday": "18.8",
      "someDepartureObserveOnly": 0
    },
    {
      "stopId": "287",
      "stopName_c": "東涌坳管理站",
      "stopName_s": "东涌坳管理站",
      "stopName_e": "Tung Chung Au Management Centre",
      "stopLocation_c": "東涌道",
      "stopLocation_s": "东涌道",
      "stopLocation_e": "Tung Chung Road",
      "latitude": "22.26410400",
      "longitude": "113.93755200",
      "fare": "12.0",
      "fareHoliday": "18.8",
      "someDepartureObserveOnly": 0
    },
    {
      "stopId": "288",
      "stopName_c": "伯公坳",
      "stopName_s": "伯公坳",
      "stopName_e": "Pak Kung Au",
      "stopLocation_c": "東涌道",
      "stopLocation_s": "东涌道",
      "stopLocation_e": "Tung Chung Road",
      "latitude": "22.24893900",
      "longitude": "113.94259700",
      "fare": "12.0",
      "fareHoliday": "18.8",
      "someDepartureObserveOnly": 0
    },
    {
      "stopId": "273",
      "stopName_c": "長沙引水道",
      "stopName_s": "长沙引水道",
      "stopName_e": "Cheung Sha Catchwater",
      "stopLocation_c": "東涌道",
      "stopLocation_s": "东涌道",
      "stopLocation_e": "Tung Chung Road",
      "latitude": "22.24000700",
      "longitude": "113.95733900",
      "fare": "6.3",
      "fareHoliday": "12.5",
      "someDepartureObserveOnly": 0
    },
    {
      "stopId": "256",
      "stopName_c": "女青年會梁紹榮度假村",
      "stopName_s": "女青年会梁绍荣度假村",
      "stopName_e": "YWCA Sydney Leong Holiday Lodge",
      "stopLocation_c": "嶼南道",
      "stopLocation_s": "屿南道",
      "stopLocation_e": "South Lantau Road",
      "latitude": "22.23776800",
      "longitude": "113.96397300",
      "fare": "4.8",
      "fareHoliday": "7.1",
      "someDepartureObserveOnly": 0
    },
    {
      "stopId": "257",
      "stopName_c": "散石灣村",
      "stopName_s": "散石湾村",
      "stopName_e": "San Shek Wan Village",
      "stopLocation_c": "嶼南道",
      "stopLocation_s": "屿南道",
      "stopLocation_e": "South Lantau Road",
      "latitude": "22.23902400",
      "longitude": "113.96652600",
      "fare": "4.8",
      "fareHoliday": "7.1",
      "someDepartureObserveOnly": 0
    },
    {
      "stopId": "258",
      "stopName_c": "散石灣中蘆",
      "stopName_s": "散石湾中芦",
      "stopName_e": "San Shek Wan 3 1/4 Milestone",
      "stopLocation_c": "嶼南道",
      "stopLocation_s": "屿南道",
      "stopLocation_e": "South Lantau Road",
      "latitude": "22.24125500",
      "longitude": "113.96866600",
      "fare": "4.8",
      "fareHoliday": "7.1",
      "someDepartureObserveOnly": 0
    },
    {
      "stopId": "259",
      "stopName_c": "羅屋村",
      "stopName_s": "罗屋村",
      "stopName_e": "Lo Uk Tsuen",
      "stopLocation_c": "嶼南道",
      "stopLocation_s": "屿南道",
      "stopLocation_e": "South Lantau Road",
      "latitude": "22.24337500",
      "longitude": "113.97483200",
      "fare": "3.6",
      "fareHoliday": "5.8",
      "someDepartureObserveOnly": 0
    },
    {
      "stopId": "260",
      "stopName_c": "新圍村",
      "stopName_s": "新围村",
      "stopName_e": "Sun Wai Tsuen",
      "stopLocation_c": "嶼南道",
      "stopLocation_s": "屿南道",
      "stopLocation_e": "South Lantau Road",
      "latitude": "22.24347600",
      "longitude": "113.97732200",
      "fare": "3.6",
      "fareHoliday": "5.8",
      "someDepartureObserveOnly": 0
    },
    {
      "stopId": "261",
      "stopName_c": "老圍村",
      "stopName_s": "老围村",
      "stopName_e": "Lo Wai Tsuen",
      "stopLocation_c": "嶼南道",
      "stopLocation_s": "屿南道",
      "stopLocation_e": "South Lantau Road",
      "latitude": "22.24444000",
      "longitude": "113.97900000",
      "fare": "3.6",
      "fareHoliday": "5.8",
      "someDepartureObserveOnly": 0
    },
    {
      "stopId": "262",
      "stopName_c": "貝澳油站",
      "stopName_s": "贝澳油站",
      "stopName_e": "Pui O Petrol Station",
      "stopLocation_c": "嶼南道",
      "stopLocation_s": "屿南道",
      "stopLocation_e": "South Lantau Road",
      "latitude": "22.24750100",
      "longitude": "113.98077000",
      "fare": "3.6",
      "fareHoliday": "5.8",
      "someDepartureObserveOnly": 0
    },
    {
      "stopId": "263",
      "stopName_c": "太古職員宿舍",
      "stopName_s": "太古职员宿舍",
      "stopName_e": "Swire Staff Holiday House",
      "stopLocation_c": "嶼南道",
      "stopLocation_s": "屿南道",
      "stopLocation_e": "South Lantau Road",
      "latitude": "22.25212000",
      "longitude": "113.98474500",
      "fare": "3.6",
      "fareHoliday": "5.8",
      "someDepartureObserveOnly": 0
    },
    {
      "stopId": "264",
      "stopName_c": "南山營地",
      "stopName_s": "南山营地",
      "stopName_e": "Nam Shan Camp Site",
      "stopLocation_c": "嶼南道",
      "stopLocation_s": "屿南道",
      "stopLocation_e": "South Lantau Road",
      "latitude": "22.25606700",
      "longitude": "113.98747000",
      "fare": "3.6",
      "fareHoliday": "5.8",
      "someDepartureObserveOnly": 0
    },
    {
      "stopId": "265",
      "stopName_c": "南山三屋村",
      "stopName_s": "南山三屋村",
      "stopName_e": "Nam Shan Sam Uk Tsuen",
      "stopLocation_c": "嶼南道",
      "stopLocation_s": "屿南道",
      "stopLocation_e": "South Lantau Road",
      "latitude": "22.25732700",
      "longitude": "113.98990100",
      "fare": "3.6",
      "fareHoliday": "5.8",
      "someDepartureObserveOnly": 0
    },
    {
      "stopId": "56",
      "stopName_c": "禮智園墳場",
      "stopName_s": "礼智园坟场",
      "stopName_e": "Lai Chi Yuen Cemetery",
      "stopLocation_c": "嶼南道",
      "stopLocation_s": "屿南道",
      "stopLocation_e": "South Lantau Road",
      "latitude": "22.25932700",
      "longitude": "113.99399300",
      "fare": "3.6",
      "fareHoliday": "5.8",
      "someDepartureObserveOnly": 0
    },
    {
      "stopId": "266",
      "stopName_c": "荔枝園",
      "stopName_s": "荔枝园",
      "stopName_e": "Lai Chi Yuen",
      "stopLocation_c": "嶼南道",
      "stopLocation_s": "屿南道",
      "stopLocation_e": "South Lantau Road",
      "latitude": "22.26066700",
      "longitude": "113.99626800",
      "fare": "3.6",
      "fareHoliday": "5.8",
      "someDepartureObserveOnly": 0
    },
    {
      "stopId": "57",
      "stopName_c": "梅窩警署",
      "stopName_s": "梅窝警署",
      "stopName_e": "Mui Wo Police Station",
      "stopLocation_c": "嶼南道",
      "stopLocation_s": "屿南道",
      "stopLocation_e": "South Lantau Road",
      "latitude": "22.26409300",
      "longitude": "113.99890600",
      "fare": "3.6",
      "fareHoliday": "5.8",
      "someDepartureObserveOnly": 0
    },
    {
      "stopId": "2",
      "stopName_c": "梅窩熟食市場",
      "stopName_s": "梅窝熟食市场",
      "stopName_e": "Mui Wo Cooked Food Market",
      "stopLocation_c": "銀礦灣道",
      "stopLocation_s": "银矿湾道",
      "stopLocation_e": "Ngan Kwong Wan Road",
      "latitude": "22.26614300",
      "longitude": "114.00004900",
      "fare": "3.6",
      "fareHoliday": "5.8",
      "someDepartureObserveOnly": 0
    },
    {
      "stopId": "3",
      "stopName_c": "銀灣邨",
      "stopName_s": "银湾邨",
      "stopName_e": "Ngan Wan Estate",
      "stopLocation_c": "銀礦灣道",
      "stopLocation_s": "银矿湾道",
      "stopLocation_e": "Ngan Kwong Wan Road",
      "latitude": "22.26540600",
      "longitude": "113.99707400",
      "fare": "3.6",
      "fareHoliday": "5.8",
      "someDepartureObserveOnly": 0
    },
    {
      "stopId": "4",
      "stopName_c": "梅窩街市",
      "stopName_s": "梅窝街市",
      "stopName_e": "Mui Wo Market",
      "stopLocation_c": "銀石街",
      "stopLocation_s": "银石街",
      "stopLocation_e": "Ngan Shek Street",
      "latitude": "22.26675900",
      "longitude": "113.99699900",
      "fare": "3.6",
      "fareHoliday": "5.8",
      "someDepartureObserveOnly": 0
    },
    {
      "stopId": "5",
      "stopName_c": "銀景中心",
      "stopName_s": "银景中心",
      "stopName_e": "Ngan King Centre",
      "stopLocation_c": "銀礦灣道",
      "stopLocation_s": "银矿湾道",
      "stopLocation_e": "Ngan Kwong Wan Road",
      "latitude": "22.26553700",
      "longitude": "113.99696500",
      "fare": "3.6",
      "fareHoliday": "5.8",
      "someDepartureObserveOnly": 0
    },
    {
      "stopId": "305",
      "stopName_c": "梅窩碼頭",
      "stopName_s": "梅窝码头",
      "stopName_e": "Mui Wo Ferry Pier",
      "stopLocation_c": "梅窩碼頭",
      "stopLocation_s": "梅窝码头",
      "stopLocation_e": "Mui Wo Ferry Pier",
      "latitude": "22.26466400",
      "longitude": "114.00155400",
      "fare": "0.0",
      "fareHoliday": "0.0",
      "someDepartureObserveOnly": 0
    }
  ]
}