{
  "stops": [
    {
      "stopId": "1",
      "stopName_c": "梅窩碼頭",
      "stopName_s": "梅窝码头",
      "stopName_e": "Mui Wo Ferry Pier",
      "stopLocation_c": "梅窩碼頭",
      "stopLocation_s": "梅窝码头",
      "stopLocation_e": "Mui Wo Ferry Pier",
      "latitude": "22.26466400",
      "longitude": "114.00155400",
      "fare": "12.5",
      "fareHoliday": "19.6",
      "someDepartureObserveOnly": 0
    },
    {
      "stopId": "2",
      "stopName_c": "梅窩熟食市場",
      "stopName_s": "梅窝熟食市场",
      "stopName_e": "Mui Wo Cooked Food Market",
      "stopLocation_c": "銀礦灣道",
      "stopLocation_s": "银矿湾道",
      "stopLocation_e": "Ngan Kwong Wan Road",
      "latitude": "22.26614300",
      "longitude": "114.00004900",
      "fare": "12.5",
      "fareHoliday": "19.6",
      "someDepartureObserveOnly": 0
    },
    {
      "stopId": "3",
      "stopName_c": "銀灣邨",
      "stopName_s": "银湾邨",
      "stopName_e": "Ngan Wan Estate",
      "stopLocation_c": "銀礦灣道",
      "stopLocation_s": "银矿湾道",
      "stopLocation_e": "Ngan Kwong Wan Road",
      "latitude": "22.26540600",
      "longitude": "113.99707400",
      "fare": "12.5",
      "fareHoliday": "19.6",
      "someDepartureObserveOnly": 0
    },
    {
      "stopId": "4",
      "stopName_c": "梅窩街市",
      "stopName_s": "梅窝街市",
      "stopName_e": "Mui Wo Market",
      "stopLocation_c": "銀石街",
      "stopLocation_s": "银石街",
      "stopLocation_e": "Ngan Shek Street",
      "latitude": "22.26675900",
      "longitude": "113.99699900",
      "fare": "12.5",
      "fareHoliday": "19.6",
      "someDepartureObserveOnly": 0
    },
    {
      "stopId": "5",
      "stopName_c": "銀景中心",
      "stopName_s": "银景中心",
      "stopName_e": "Ngan King Centre",
      "stopLocation_c": "銀礦灣道",
      "stopLocation_s": "银矿湾道",
      "stopLocation_e": "Ngan Kwong Wan Road",
      "latitude": "22.26553700",
      "longitude": "113.99696500",
      "fare": "12.5",
      "fareHoliday": "19.6",
      "someDepartureObserveOnly": 0
    },
    {
      "stopId": "6",
      "stopName_c": "銀鑛灣濾水廠",
      "stopName_s": "银鑛湾滤水厂",
      "stopName_e": "Silver Mine Bay Water Treatment Works",
      "stopLocation_c": "嶼南道",
      "stopLocation_s": "屿南道",
      "stopLocation_e": "South Lantau Road",
      "latitude": "22.26296600",
      "longitude": "113.99782600",
      "fare": "12.5",
      "fareHoliday": "19.6",
      "someDepartureObserveOnly": 0
    },
    {
      "stopId": "7",
      "stopName_c": "荔枝園",
      "stopName_s": "荔枝园",
      "stopName_e": "Lai Chi Yuen",
      "stopLocation_c": "嶼南道",
      "stopLocation_s": "屿南道",
      "stopLocation_e": "South Lantau Road",
      "latitude": "22.26075800",
      "longitude": "113.99647700",
      "fare": "12.5",
      "fareHoliday": "19.6",
      "someDepartureObserveOnly": 0
    },
    {
      "stopId": "8",
      "stopName_c": "南山三屋村",
      "stopName_s": "南山三屋村",
      "stopName_e": "Nam Shan Sam Uk Tsuen",
      "stopLocation_c": "嶼南道",
      "stopLocation_s": "屿南道",
      "stopLocation_e": "South Lantau Road",
      "latitude": "22.25707200",
      "longitude": "113.99010800",
      "fare": "12.5",
      "fareHoliday": "19.6",
      "someDepartureObserveOnly": 0
    },
    {
      "stopId": "9",
      "stopName_c": "南山營地",
      "stopName_s": "南山营地",
      "stopName_e": "Nam Shan Camp Site",
      "stopLocation_c": "嶼南道",
      "stopLocation_s": "屿南道",
      "stopLocation_e": "South Lantau Road",
      "latitude": "22.25545100",
      "longitude": "113.98681100",
      "fare": "12.5",
      "fareHoliday": "19.6",
      "someDepartureObserveOnly": 0
    },
    {
      "stopId": "10",
      "stopName_c": "太古職員宿舍",
      "stopName_s": "太古职员宿舍",
      "stopName_e": "Swire Staff Holiday House",
      "stopLocation_c": "嶼南道",
      "stopLocation_s": "屿南道",
      "stopLocation_e": "South Lantau Road",
      "latitude": "22.25191800",
      "longitude": "113.98488700",
      "fare": "12.5",
      "fareHoliday": "19.6",
      "someDepartureObserveOnly": 0
    },
    {
      "stopId": "11",
      "stopName_c": "貝澳油站",
      "stopName_s": "贝澳油站",
      "stopName_e": "Pui O Petrol Station",
      "stopLocation_c": "嶼南道",
      "stopLocation_s": "屿南道",
      "stopLocation_e": "South Lantau Road",
      "latitude": "22.24731100",
      "longitude": "113.98098500",
      "fare": "10.2",
      "fareHoliday": "16.9",
      "someDepartureObserveOnly": 0
    },
    {
      "stopId": "12",
      "stopName_c": "老圍村",
      "stopName_s": "老围村",
      "stopName_e": "Lo Wai Tsuen",
      "stopLocation_c": "嶼南道",
      "stopLocation_s": "屿南道",
      "stopLocation_e": "South Lantau Road",
      "latitude": "22.24425200",
      "longitude": "113.97923600",
      "fare": "10.2",
      "fareHoliday": "16.9",
      "someDepartureObserveOnly": 0
    },
    {
      "stopId": "13",
      "stopName_c": "新圍村",
      "stopName_s": "新围村",
      "stopName_e": "Sun Wai Tsuen",
      "stopLocation_c": "嶼南道",
      "stopLocation_s": "屿南道",
      "stopLocation_e": "South Lantau Road",
      "latitude": "22.24347600",
      "longitude": "113.97817800",
      "fare": "10.2",
      "fareHoliday": "16.9",
      "someDepartureObserveOnly": 0
    },
    {
      "stopId": "14",
      "stopName_c": "羅屋村",
      "stopName_s": "罗屋村",
      "stopName_e": "Lo Uk Tsuen",
      "stopLocation_c": "嶼南道",
      "stopLocation_s": "屿南道",
      "stopLocation_e": "South Lantau Road",
      "latitude": "22.24319200",
      "longitude": "113.97488500",
      "fare": "10.2",
      "fareHoliday": "16.9",
      "someDepartureObserveOnly": 0
    },
    {
      "stopId": "15",
      "stopName_c": "牛坳園",
      "stopName_s": "牛坳园",
      "stopName_e": "Ngau Au Yuen",
      "stopLocation_c": "嶼南道",
      "stopLocation_s": "屿南道",
      "stopLocation_e": "South Lantau Road",
      "latitude": "22.24304100",
      "longitude": "113.97254500",
      "fare": "10.2",
      "fareHoliday": "16.9",
      "someDepartureObserveOnly": 0
    },
    {
      "stopId": "16",
      "stopName_c": "散石灣中蘆",
      "stopName_s": "散石湾中芦",
      "stopName_e": "San Shek Wan 3 1/4 Milestone",
      "stopLocation_c": "嶼南道",
      "stopLocation_s": "屿南道",
      "stopLocation_e": "South Lantau Road",
      "latitude": "22.24124400",
      "longitude": "113.96910500",
      "fare": "7.1",
      "fareHoliday": "14.2",
      "someDepartureObserveOnly": 0
    },
    {
      "stopId": "17",
      "stopName_c": "散石灣村",
      "stopName_s": "散石湾村",
      "stopName_e": "San Shek Wan Village",
      "stopLocation_c": "嶼南道",
      "stopLocation_s": "屿南道",
      "stopLocation_e": "South Lantau Road",
      "latitude": "22.23892800",
      "longitude": "113.96677200",
      "fare": "7.1",
      "fareHoliday": "14.2",
      "someDepartureObserveOnly": 0
    },
    {
      "stopId": "18",
      "stopName_c": "女青年會梁紹榮度假村",
      "stopName_s": "女青年会梁绍荣度假村",
      "stopName_e": "YWCA Sydney Leong Holiday Lodge",
      "stopLocation_c": "嶼南道",
      "stopLocation_s": "屿南道",
      "stopLocation_e": "South Lantau Road",
      "latitude": "22.23748400",
      "longitude": "113.96400100",
      "fare": "7.1",
      "fareHoliday": "14.2",
      "someDepartureObserveOnly": 0
    },
    {
      "stopId": "179",
      "stopName_c": "東涌道",
      "stopName_s": "东涌道",
      "stopName_e": "Tung Chung Road",
      "stopLocation_c": "嶼南道",
      "stopLocation_s": "屿南道",
      "stopLocation_e": "South Lantau Road",
      "latitude": "22.23791800",
      "longitude": "113.96292000",
      "fare": "7.1",
      "fareHoliday": "14.2",
      "someDepartureObserveOnly": 0
    },
    {
      "stopId": "64",
      "stopName_c": "長沙引水道",
      "stopName_s": "长沙引水道",
      "stopName_e": "Cheung Sha Catchwater",
      "stopLocation_c": "東涌道",
      "stopLocation_s": "东涌道",
      "stopLocation_e": "Tung Chung Road",
      "latitude": "22.23981400",
      "longitude": "113.95721600",
      "fare": "7.1",
      "fareHoliday": "14.2",
      "someDepartureObserveOnly": 0
    },
    {
      "stopId": "65",
      "stopName_c": "伯公坳",
      "stopName_s": "伯公坳",
      "stopName_e": "Pak Kung Au",
      "stopLocation_c": "東涌道",
      "stopLocation_s": "东涌道",
      "stopLocation_e": "Tung Chung Road",
      "latitude": "22.24805400",
      "longitude": "113.94313900",
      "fare": "7.1",
      "fareHoliday": "14.2",
      "someDepartureObserveOnly": 0
    },
    {
      "stopId": "66",
      "stopName_c": "東涌坳管理站",
      "stopName_s": "东涌坳管理站",
      "stopName_e": "Tung Chung Au Management Centre",
      "stopLocation_c": "東涌道",
      "stopLocation_s": "东涌道",
      "stopLocation_e": "Tung Chung Road",
      "latitude": "22.26400600",
      "longitude": "113.93715500",
      "fare": "7.1",
      "fareHoliday": "14.2",
      "someDepartureObserveOnly": 0
    },
    {
      "stopId": "67",
      "stopName_c": "十八區墳場",
      "stopName_s": "十八区坟场",
      "stopName_e": "Cemetery Area No. 18",
      "stopLocation_c": "東涌道",
      "stopLocation_s": "东涌道",
      "stopLocation_e": "Tung Chung Road",
      "latitude": "22.26546600",
      "longitude": "113.93646300",
      "fare": "7.1",
      "fareHoliday": "14.2",
      "someDepartureObserveOnly": 0
    },
    {
      "stopId": "68",
      "stopName_c": "石門甲道",
      "stopName_s": "石门甲道",
      "stopName_e": "Shek Mun Kap Road",
      "stopLocation_c": "東涌道",
      "stopLocation_s": "东涌道",
      "stopLocation_e": "Tung Chung Road",
      "latitude": "22.26991800",
      "longitude": "113.93424300",
      "fare": "2.8",
      "fareHoliday": "5.6",
      "someDepartureObserveOnly": 0
    },
    {
      "stopId": "69",
      "stopName_c": "龍井頭",
      "stopName_s": "龙井头",
      "stopName_e": "Lung Tseng Tau",
      "stopLocation_c": "東涌道",
      "stopLocation_s": "东涌道",
      "stopLocation_e": "Tung Chung Road",
      "latitude": "22.27597500",
      "longitude": "113.93337700",
      "fare": "2.8",
      "fareHoliday": "5.6",
      "someDepartureObserveOnly": 0
    },
    {
      "stopId": "70",
      "stopName_c": "黃家圍",
      "stopName_s": "黄家围",
      "stopName_e": "Wong Ka Wai",
      "stopLocation_c": "東涌道",
      "stopLocation_s": "东涌道",
      "stopLocation_e": "Tung Chung Road",
      "latitude": "22.27716200",
      "longitude": "113.93381200",
      "fare": "2.8",
      "fareHoliday": "5.6",
      "someDepartureObserveOnly": 0
    },
    {
      "stopId": "71",
      "stopName_c": "下嶺皮",
      "stopName_s": "下岭皮",
      "stopName_e": "Ha Ling Pei",
      "stopLocation_c": "東涌道",
      "stopLocation_s": "东涌道",
      "stopLocation_e": "Tung Chung Road",
      "latitude": "22.27873100",
      "longitude": "113.93547500",
      "fare": "2.8",
      "fareHoliday": "5.6",
      "someDepartureObserveOnly": 0
    },
    {
      "stopId": "72",
      "stopName_c": "上嶺皮",
      "stopName_s": "上岭皮",
      "stopName_e": "Sheung Ling Pei",
      "stopLocation_c": "東涌道",
      "stopLocation_s": "东涌道",
      "stopLocation_e": "Tung Chung Road",
      "latitude": "22.27891200",
      "longitude": "113.93685600",
      "fare": "2.8",
      "fareHoliday": "5.6",
      "someDepartureObserveOnly": 0
    },
    {
      "stopId": "73",
      "stopName_c": "東涌鄉事委員會",
      "stopName_s": "东涌乡事委员会",
      "stopName_e": "Tung Chung Rural Committee Office",
      "stopLocation_c": "東涌道",
      "stopLocation_s": "东涌道",
      "stopLocation_e": "Tung Chung Road",
      "latitude": "22.27913800",
      "longitude": "113.93929900",
      "fare": "2.8",
      "fareHoliday": "5.6",
      "someDepartureObserveOnly": 0
    },
    {
      "stopId": "74",
      "stopName_c": "馬灣新村",
      "stopName_s": "马湾新村",
      "stopName_e": "Ma Wan Sun Tsuen",
      "stopLocation_c": "松仁路",
      "stopLocation_s": "松仁路",
      "stopLocation_e": "Chung Yan Road",
      "latitude": "22.27986500",
      "longitude": "113.94024300",
      "fare": "2.8",
      "fareHoliday": "5.6",
      "someDepartureObserveOnly": 0
    },
    {
      "stopId": "185",
      "stopName_c": "北大嶼山醫院(北行), 逸東邨美逸樓",
      "stopName_s": "北大屿山医院(北行), 逸东邨美逸楼",
      "stopName_e": "North Lantau Hospital (North Bound), Mei Yat House Yat Tung Estate",
      "stopLocation_c": "松仁路",
      "stopLocation_s": "松仁路",
      "stopLocation_e": "Chung Yan Road",
      "latitude": "22.28129500",
      "longitude": "113.93882200",
      "fare": "2.8",
      "fareHoliday": "5.6",
      "someDepartureObserveOnly": 1
    },
    {
      "stopId": "76",
      "stopName_c": "北大嶼山醫院(南行)",
      "stopName_s": "北大屿山医院(南行)",
      "stopName_e": "North Lantau Hospital (South Bound)",
      "stopLocation_c": "松仁路",
      "stopLocation_s": "松仁路",
      "stopLocation_e": "Chung Yan Road",
      "latitude": "22.28186100",
      "longitude": "113.93880300",
      "fare": "2.8",
      "fareHoliday": "5.6",
      "someDepartureObserveOnly": 1
    },
    {
      "stopId": "77",
      "stopName_c": "東涌消防局",
      "stopName_s": "东涌消防局",
      "stopName_e": "Tung Chung Fire Station",
      "stopLocation_c": "順東路",
      "stopLocation_s": "顺东路",
      "stopLocation_e": "Shun Tung Road",
      "latitude": "22.28603000",
      "longitude": "113.94105700",
      "fare": "2.8",
      "fareHoliday": "5.6",
      "someDepartureObserveOnly": 0
    },
    {
      "stopId": "78",
      "stopName_c": "東涌纜車站",
      "stopName_s": "东涌缆车站",
      "stopName_e": "Tung Chung Cable Car Terminal",
      "stopLocation_c": "達東路",
      "stopLocation_s": "达东路",
      "stopLocation_e": "Tat Tung Road",
      "latitude": "22.28930100",
      "longitude": "113.93873300",
      "fare": "2.8",
      "fareHoliday": "5.6",
      "someDepartureObserveOnly": 0
    },
    {
      "stopId": "79",
      "stopName_c": "東涌站巴士總站",
      "stopName_s": "东涌站巴士总站",
      "stopName_e": "Tung Chung Station Bus Terminus",
      "stopLocation_c": "達東路",
      "stopLocation_s": "达东路",
      "stopLocation_e": "Tat Tung Road",
      "latitude": "22.28986200",
      "longitude": "113.93961600",
      "fare": "0.0",
      "fareHoliday": "0.0",
      "someDepartureObserveOnly": 0
    }
  ]
}