{
  "stops": [
    {
      "stopId": "307",
      "stopName_c": "大橋香港口岸",
      "stopName_s": "大桥香港口岸",
      "stopName_e": "HZMB Hong Kong Port",
      "stopLocation_c": "大橋香港口岸 (抵港層)",
      "stopLocation_s": "大桥香港口岸 (抵港层)",
      "stopLocation_e": "HZMB Hong Kong Port (Arrival Level)",
      "latitude": "22.31640000",
      "longitude": "113.95085600",
      "fare": "9.1",
      "fareHoliday": "9.1",
      "someDepartureObserveOnly": 0
    },
    {
      "stopId": "78",
      "stopName_c": "東涌纜車站",
      "stopName_s": "东涌缆车站",
      "stopName_e": "Tung Chung Cable Car Terminal",
      "stopLocation_c": "達東路",
      "stopLocation_s": "达东路",
      "stopLocation_e": "Tat Tung Road",
      "latitude": "22.28930100",
      "longitude": "113.93873300",
      "fare": "9.1",
      "fareHoliday": "9.1",
      "someDepartureObserveOnly": 0
    },
    {
      "stopId": "79",
      "stopName_c": "東涌站巴士總站",
      "stopName_s": "东涌站巴士总站",
      "stopName_e": "Tung Chung Station Bus Terminus",
      "stopLocation_c": "達東路",
      "stopLocation_s": "达东路",
      "stopLocation_e": "Tat Tung Road",
      "latitude": "22.28986200",
      "longitude": "113.93961600",
      "fare": "5.1",
      "fareHoliday": "5.1",
      "someDepartureObserveOnly": 0
    },
    {
      "stopId": "81",
      "stopName_c": "裕東苑",
      "stopName_s": "裕东苑",
      "stopName_e": "Yu Tung Court",
      "stopLocation_c": "順東路",
      "stopLocation_s": "顺东路",
      "stopLocation_e": "Shun Tung Road",
      "latitude": "22.28607700",
      "longitude": "113.94160300",
      "fare": "5.1",
      "fareHoliday": "5.1",
      "someDepartureObserveOnly": 0
    },
    {
      "stopId": "310",
      "stopName_c": "滿東邨",
      "stopName_s": "满东邨",
      "stopName_e": "Mun Tung Estate",
      "stopLocation_c": "裕東路",
      "stopLocation_s": "裕东路",
      "stopLocation_e": "Yu Tung Road",
      "latitude": "22.27892200",
      "longitude": "113.93455600",
      "fare": "0.0",
      "fareHoliday": "0.0",
      "someDepartureObserveOnly": 0
    }
  ]
}