{
  "stops": [
    {
      "stopId": "297",
      "stopName_c": "迎東邨",
      "stopName_s": "迎东邨",
      "stopName_e": "Ying Tung Estate",
      "stopLocation_c": "迎東邨",
      "stopLocation_s": "迎东邨",
      "stopLocation_e": "Ying Tung Estate",
      "latitude": "22.29710400",
      "longitude": "113.95334200",
      "fare": "3.7",
      "fareHoliday": "3.7",
      "someDepartureObserveOnly": 0
    },
    {
      "stopId": "191",
      "stopName_c": "昇薈(南行)",
      "stopName_s": "升薈(南行)",
      "stopName_e": "The Visionary (South Bound)",
      "stopLocation_c": "迎東路",
      "stopLocation_s": "迎东路",
      "stopLocation_e": "Ying Tung Road",
      "latitude": "22.29583500",
      "longitude": "113.95207700",
      "fare": "3.7",
      "fareHoliday": "3.7",
      "someDepartureObserveOnly": 0
    },
    {
      "stopId": "298",
      "stopName_c": "映灣園二期",
      "stopName_s": "映湾园二期",
      "stopName_e": "Caribbean Coast Phase 2",
      "stopLocation_c": "文東路",
      "stopLocation_s": "文东路",
      "stopLocation_e": "Man Tung Road",
      "latitude": "22.29193200",
      "longitude": "113.95049000",
      "fare": "3.7",
      "fareHoliday": "3.7",
      "someDepartureObserveOnly": 0
    },
    {
      "stopId": "111",
      "stopName_c": "怡東路",
      "stopName_s": "怡东路",
      "stopName_e": "Yi Tung Road",
      "stopLocation_c": "文東路",
      "stopLocation_s": "文东路",
      "stopLocation_e": "Man Tung Road",
      "latitude": "22.29094900",
      "longitude": "113.94801200",
      "fare": "3.7",
      "fareHoliday": "3.7",
      "someDepartureObserveOnly": 0
    },
    {
      "stopId": "112",
      "stopName_c": "怡文中學",
      "stopName_s": "怡文中学",
      "stopName_e": "E Wun Secondary School",
      "stopLocation_c": "文東路",
      "stopLocation_s": "文东路",
      "stopLocation_e": "Man Tung Road",
      "latitude": "22.29085000",
      "longitude": "113.94461100",
      "fare": "3.7",
      "fareHoliday": "3.7",
      "someDepartureObserveOnly": 0
    },
    {
      "stopId": "299",
      "stopName_c": "海堤灣畔",
      "stopName_s": "海堤湾畔",
      "stopName_e": "Seaview Crescent",
      "stopLocation_c": "惠東路",
      "stopLocation_s": "惠东路",
      "stopLocation_e": "Wai Tung Road",
      "latitude": "22.29303900",
      "longitude": "113.94317900",
      "fare": "3.7",
      "fareHoliday": "3.7",
      "someDepartureObserveOnly": 0
    },
    {
      "stopId": "106",
      "stopName_c": "東涌發展碼頭",
      "stopName_s": "东涌发展码头",
      "stopName_e": "Tung Chung Development Ferry Pier",
      "stopLocation_c": "東涌海濱路",
      "stopLocation_s": "东涌海滨路",
      "stopLocation_e": "Tung Chung Waterfront Road",
      "latitude": "22.29384600",
      "longitude": "113.94044900",
      "fare": "3.7",
      "fareHoliday": "3.7",
      "someDepartureObserveOnly": 0
    },
    {
      "stopId": "78",
      "stopName_c": "東涌纜車站",
      "stopName_s": "东涌缆车站",
      "stopName_e": "Tung Chung Cable Car Terminal",
      "stopLocation_c": "達東路",
      "stopLocation_s": "达东路",
      "stopLocation_e": "Tat Tung Road",
      "latitude": "22.28930100",
      "longitude": "113.93873300",
      "fare": "3.7",
      "fareHoliday": "3.7",
      "someDepartureObserveOnly": 0
    },
    {
      "stopId": "278",
      "stopName_c": "東涌站巴士總站",
      "stopName_s": "东涌站巴士总站",
      "stopName_e": "Tung Chung Station Bus Terminus",
      "stopLocation_c": "達東路",
      "stopLocation_s": "达东路",
      "stopLocation_e": "Tat Tung Road",
      "latitude": "22.28986200",
      "longitude": "113.93961600",
      "fare": "3.7",
      "fareHoliday": "3.7",
      "someDepartureObserveOnly": 0
    },
    {
      "stopId": "81",
      "stopName_c": "裕東苑",
      "stopName_s": "裕东苑",
      "stopName_e": "Yu Tung Court",
      "stopLocation_c": "順東路",
      "stopLocation_s": "顺东路",
      "stopLocation_e": "Shun Tung Road",
      "latitude": "22.28607700",
      "longitude": "113.94160300",
      "fare": "3.7",
      "fareHoliday": "3.7",
      "someDepartureObserveOnly": 0
    },
    {
      "stopId": "185",
      "stopName_c": "北大嶼山醫院(北行), 逸東邨美逸樓",
      "stopName_s": "北大屿山医院(北行), 逸东邨美逸楼",
      "stopName_e": "North Lantau Hospital (North Bound), Mei Yat House Yat Tung Estate",
      "stopLocation_c": "松仁路",
      "stopLocation_s": "松仁路",
      "stopLocation_e": "Chung Yan Road",
      "latitude": "22.28129500",
      "longitude": "113.93882200",
      "fare": "3.7",
      "fareHoliday": "3.7",
      "someDepartureObserveOnly": 0
    },
    {
      "stopId": "188",
      "stopName_c": "北大嶼山醫院(主座大樓)",
      "stopName_s": "北大屿山医院(主座大楼)",
      "stopName_e": "North Lantau Hospital(Main Block)",
      "stopLocation_c": "北大嶼山醫院急症室外",
      "stopLocation_s": "北大屿山医院急症室外",
      "stopLocation_e": "North Lantau Hospital, outside Casualty Ward",
      "latitude": "22.28202800",
      "longitude": "113.93926900",
      "fare": "3.7",
      "fareHoliday": "3.7",
      "someDepartureObserveOnly": 0
    },
    {
      "stopId": "338",
      "stopName_c": "裕泰苑(松仁路)",
      "stopName_s": "裕泰苑(松仁路)",
      "stopName_e": "Yu Tai Court (Chung Yan Road)",
      "stopLocation_c": "松仁路",
      "stopLocation_s": "松仁路",
      "stopLocation_e": "Chung Yan Road",
      "latitude": "22.28019400",
      "longitude": "113.94030600",
      "fare": "3.7",
      "fareHoliday": "3.7",
      "someDepartureObserveOnly": 0
    },
    {
      "stopId": "74",
      "stopName_c": "馬灣新村",
      "stopName_s": "马湾新村",
      "stopName_e": "Ma Wan Sun Tsuen",
      "stopLocation_c": "松仁路",
      "stopLocation_s": "松仁路",
      "stopLocation_e": "Chung Yan Road",
      "latitude": "22.27986500",
      "longitude": "113.94024300",
      "fare": "3.7",
      "fareHoliday": "3.7",
      "someDepartureObserveOnly": 0
    },
    {
      "stopId": "310",
      "stopName_c": "滿東邨",
      "stopName_s": "满东邨",
      "stopName_e": "Mun Tung Estate",
      "stopLocation_c": "裕東路",
      "stopLocation_s": "裕东路",
      "stopLocation_e": "Yu Tung Road",
      "latitude": "22.27892200",
      "longitude": "113.93455600",
      "fare": "3.7",
      "fareHoliday": "3.7",
      "someDepartureObserveOnly": 0
    },
    {
      "stopId": "103",
      "stopName_c": "逸東邨福逸樓",
      "stopName_s": "逸东邨福逸楼",
      "stopName_e": "Fuk Yat House, Yat Tung Estate",
      "stopLocation_c": "裕東路",
      "stopLocation_s": "裕东路",
      "stopLocation_e": "Yu Tung Road",
      "latitude": "22.27921600",
      "longitude": "113.93465100",
      "fare": "3.7",
      "fareHoliday": "3.7",
      "someDepartureObserveOnly": 0
    },
    {
      "stopId": "104",
      "stopName_c": "逸東邨雍逸樓",
      "stopName_s": "逸东邨雍逸楼",
      "stopName_e": "Yung Yat House, Yat Tung Estate",
      "stopLocation_c": "裕東路",
      "stopLocation_s": "裕东路",
      "stopLocation_e": "Yu Tung Road",
      "latitude": "22.27959200",
      "longitude": "113.93671200",
      "fare": "3.7",
      "fareHoliday": "3.7",
      "someDepartureObserveOnly": 0
    },
    {
      "stopId": "320",
      "stopName_c": "北大嶼山醫院(北行), 逸東邨美逸樓",
      "stopName_s": "北大屿山医院(北行), 逸东邨美逸楼",
      "stopName_e": "North Lantau Hospital (North Bound), Mei Yat House Yat Tung Estate",
      "stopLocation_c": "松仁路",
      "stopLocation_s": "松仁路",
      "stopLocation_e": "Chung Yan Road",
      "latitude": "22.28129500",
      "longitude": "113.93882200",
      "fare": "3.7",
      "fareHoliday": "3.7",
      "someDepartureObserveOnly": 0
    },
    {
      "stopId": "89",
      "stopName_c": "逸東邨",
      "stopName_s": "逸东邨",
      "stopName_e": "Yat Tung Estate",
      "stopLocation_c": "逸東街",
      "stopLocation_s": "逸东街",
      "stopLocation_e": "Yat Tung Street",
      "latitude": "22.28205300",
      "longitude": "113.93586200",
      "fare": "3.7",
      "fareHoliday": "3.7",
      "someDepartureObserveOnly": 0
    },
    {
      "stopId": "322",
      "stopName_c": "北大嶼山醫院(南行)",
      "stopName_s": "北大屿山医院(南行)",
      "stopName_e": "North Lantau Hospital (South Bound)",
      "stopLocation_c": "松仁路",
      "stopLocation_s": "松仁路",
      "stopLocation_e": "Chung Yan Road",
      "latitude": "22.28186100",
      "longitude": "113.93880300",
      "fare": "3.7",
      "fareHoliday": "3.7",
      "someDepartureObserveOnly": 0
    },
    {
      "stopId": "77",
      "stopName_c": "東涌消防局",
      "stopName_s": "东涌消防局",
      "stopName_e": "Tung Chung Fire Station",
      "stopLocation_c": "順東路",
      "stopLocation_s": "顺东路",
      "stopLocation_e": "Shun Tung Road",
      "latitude": "22.28603000",
      "longitude": "113.94105700",
      "fare": "3.7",
      "fareHoliday": "3.7",
      "someDepartureObserveOnly": 0
    },
    {
      "stopId": "321",
      "stopName_c": "東涌纜車站",
      "stopName_s": "东涌缆车站",
      "stopName_e": "Tung Chung Cable Car Terminal",
      "stopLocation_c": "達東路",
      "stopLocation_s": "达东路",
      "stopLocation_e": "Tat Tung Road",
      "latitude": "22.28885253",
      "longitude": "113.93846231",
      "fare": "3.7",
      "fareHoliday": "3.7",
      "someDepartureObserveOnly": 0
    },
    {
      "stopId": "332",
      "stopName_c": "東涌站巴士總站",
      "stopName_s": "东涌站巴士总站",
      "stopName_e": "Tung Chung Station Bus Terminus",
      "stopLocation_c": "達東路",
      "stopLocation_s": "达东路",
      "stopLocation_e": "Tat Tung Road",
      "latitude": "22.28986200",
      "longitude": "113.93961600",
      "fare": "3.7",
      "fareHoliday": "3.7",
      "someDepartureObserveOnly": 0
    },
    {
      "stopId": "319",
      "stopName_c": "東涌發展碼頭",
      "stopName_s": "东涌发展码头",
      "stopName_e": "Tung Chung Development Ferry Pier",
      "stopLocation_c": "東涌海濱路",
      "stopLocation_s": "东涌海滨路",
      "stopLocation_e": "Tung Chung Waterfront Road",
      "latitude": "22.29384600",
      "longitude": "113.94044900",
      "fare": "3.7",
      "fareHoliday": "3.7",
      "someDepartureObserveOnly": 0
    },
    {
      "stopId": "107",
      "stopName_c": "海堤灣畔",
      "stopName_s": "海堤湾畔",
      "stopName_e": "Seaview Crescent",
      "stopLocation_c": "惠東路",
      "stopLocation_s": "惠东路",
      "stopLocation_e": "Wai Tung Road",
      "latitude": "22.29292500",
      "longitude": "113.94347100",
      "fare": "3.7",
      "fareHoliday": "3.7",
      "someDepartureObserveOnly": 0
    },
    {
      "stopId": "108",
      "stopName_c": "藍天海岸",
      "stopName_s": "蓝天海岸",
      "stopName_e": "Coastal Skyline",
      "stopLocation_c": "文東路",
      "stopLocation_s": "文东路",
      "stopLocation_e": "Man Tung Road",
      "latitude": "22.29094200",
      "longitude": "113.94593100",
      "fare": "3.7",
      "fareHoliday": "3.7",
      "someDepartureObserveOnly": 0
    },
    {
      "stopId": "186",
      "stopName_c": "映灣園三期",
      "stopName_s": "映湾园三期",
      "stopName_e": "Caribbean Coast Phase 3",
      "stopLocation_c": "文東路",
      "stopLocation_s": "文东路",
      "stopLocation_e": "Man Tung Road",
      "latitude": "22.29142400",
      "longitude": "113.94897500",
      "fare": "3.7",
      "fareHoliday": "3.7",
      "someDepartureObserveOnly": 0
    },
    {
      "stopId": "109",
      "stopName_c": "映灣園二期",
      "stopName_s": "映湾园二期",
      "stopName_e": "Caribbean Coast Phase 2",
      "stopLocation_c": "文東路",
      "stopLocation_s": "文东路",
      "stopLocation_e": "Man Tung Road",
      "latitude": "22.29188200",
      "longitude": "113.95001000",
      "fare": "3.7",
      "fareHoliday": "3.7",
      "someDepartureObserveOnly": 0
    },
    {
      "stopId": "194",
      "stopName_c": "映灣園一期",
      "stopName_s": "映湾园一期",
      "stopName_e": "Caribbean Coast Phase 1",
      "stopLocation_c": "文東路",
      "stopLocation_s": "文东路",
      "stopLocation_e": "Man Tung Road",
      "latitude": "22.29349500",
      "longitude": "113.95181600",
      "fare": "3.7",
      "fareHoliday": "3.7",
      "someDepartureObserveOnly": 0
    },
    {
      "stopId": "190",
      "stopName_c": "昇薈(北行)",
      "stopName_s": "升薈(北行)",
      "stopName_e": "The Visionary(North Bound)",
      "stopLocation_c": "迎東路",
      "stopLocation_s": "迎东路",
      "stopLocation_e": "Ying Tung Road",
      "latitude": "22.29582300",
      "longitude": "113.95190700",
      "fare": "3.7",
      "fareHoliday": "3.7",
      "someDepartureObserveOnly": 0
    },
    {
      "stopId": "193",
      "stopName_c": "迎東邨",
      "stopName_s": "迎东邨",
      "stopName_e": "Ying Tung Estate",
      "stopLocation_c": "迎東邨",
      "stopLocation_s": "迎东邨",
      "stopLocation_e": "Ying Tung Estate",
      "latitude": "22.29710400",
      "longitude": "113.95334200",
      "fare": "0.0",
      "fareHoliday": "0.0",
      "someDepartureObserveOnly": 0
    }
  ]
}